{"id": "B02F302A5D", "name": "\u4e2d\u56fd\u77f3\u5316\u5357\u5c71\u52a0\u6cb9\u7ad9", "type": "\u6c7d\u8f66\u670d\u52a1;\u52a0\u6cb9\u7ad9;\u4e2d\u56fd\u77f3\u5316", "address": "\u5357\u5c71\u5927\u90532043\u53f7", "lng": 113.92422, "lat": 22.529045}	{"id": "B02F302A5D", "name": "\u4e2d\u56fd\u77f3\u5316\u5357\u5c71\u52a0\u6cb9\u7ad9", "type": "\u6c7d\u8f66\u670d\u52a1;\u52a0\u6cb9\u7ad9;\u4e2d\u56fd\u77f3\u5316", "address": "\u5357\u5c71\u5927\u90532043\u53f7", "lng": 113.92422, "lat": 22.529045}
{"id": "B02F38JGB6", "name": "\u76db\u5fb7\u77f3\u6cb9\u52a0\u6cb9\u7ad9", "type": "\u6c7d\u8f66\u670d\u52a1;\u52a0\u6cb9\u7ad9;\u4e2d\u56fd\u77f3\u6cb9", "address": "\u677e\u767d\u8def\u4e0e\u7530\u5bee\u8def\u4ea4\u53c9\u53e3\u5357100\u7c73", "lng": 113.906923, "lat": 22.726945}
{"id": "B02F37VHC1", "name": "\u5927\u53d1\u57d4\u6cb9\u7ad9", "type": "\u6c7d\u8f66\u670d\u52a1;\u52a0\u6cb9\u7ad9;\u52a0\u6cb9\u7ad9", "address": "\u5e03\u9f99\u8def620\u53f7", "lng": 114.057113, "lat": 22.62816}	{"id": "B02F37VHC1", "name": "\u5927\u53d1\u57d4\u6cb9\u7ad9", "type": "\u6c7d\u8f66\u670d\u52a1;\u52a0\u6cb9\u7ad9;\u52a0\u6cb9\u7ad9", "address": "\u5e03\u9f99\u8def620\u53f7", "lng": 114.057113, "lat": 22.62816}
{"id": "B02F37T4WF", "name": "\u4e2d\u56fd\u77f3\u5316\u65b0\u52a8\u529b\u52a0\u6cb9\u7ad9", "type": "\u6c7d\u8f66\u670d\u52a1;\u52a0\u6cb9\u7ad9;\u4e2d\u56fd\u77f3\u5316", "address": "\u9f99\u89c2\u5927\u905384\u53f7", "lng": 114.025322, "lat": 22.665784}	{"id": "B02F37T4WF", "name": "\u4e2d\u56fd\u77f3\u5316\u65b0\u52a8\u529b\u52a0\u6cb9\u7ad9", "type": "\u6c7d\u8f66\u670d\u52a1;\u52a0\u6cb9\u7ad9;\u4e2d\u56fd\u77f3\u5316", "address": "\u9f99\u89c2\u5927\u905384\u53f7", "lng": 114.025322, "lat": 22.665784}
{"id": "B0FFFWVC9X", "name": "\u4e2d\u56fd\u77f3\u5316\u6c99\u4e95\u52a0\u6cb9\u7ad9(\u6c99\u5763\u4e09\u8def)", "type": "\u6c7d\u8f66\u670d\u52a1;\u52a0\u6cb9\u7ad9;\u4e2d\u56fd\u77f3\u5316", "address": "\u6c99\u5763\u4e09\u8def\u4e0e\u6c99\u4e95\u8def\u4ea4\u53c9\u5904\u5357\u884c\u8def\u897f", "lng": 113.810268, "lat": 22.729519}	{"id": "B0FFFWVC9X", "name": "\u4e2d\u56fd\u77f3\u5316\u6c99\u4e95\u52a0\u6cb9\u7ad9(\u6c99\u5763\u4e09\u8def)", "type": "\u6c7d\u8f66\u670d\u52a1;\u52a0\u6cb9\u7ad9;\u4e2d\u56fd\u77f3\u5316", "address": "\u6c99\u5763\u4e09\u8def\u4e0e\u6c99\u4e95\u8def\u4ea4\u53c9\u5904\u5357\u884c\u8def\u897f", "lng": 113.810268, "lat": 22.729519}
{"id": "B02F37VATI", "name": "\u4e2d\u56fd\u77f3\u5316\u6807\u51c6\u52a0\u6cb9\u7ad9", "type": "\u6c7d\u8f66\u670d\u52a1;\u52a0\u6cb9\u7ad9;\u4e2d\u56fd\u77f3\u5316", "address": "\u6df1\u5357\u4e1c\u8def1135\u53f7", "lng": 114.131349, "lat": 22.544732}	{"id": "B02F37VATI", "name": "\u4e2d\u56fd\u77f3\u5316\u6807\u51c6\u52a0\u6cb9\u7ad9", "type": "\u6c7d\u8f66\u670d\u52a1;\u52a0\u6cb9\u7ad9;\u4e2d\u56fd\u77f3\u5316", "address": "\u6df1\u5357\u4e1c\u8def1135\u53f7", "lng": 114.131349, "lat": 22.544732}
{"id": "B02F38JFY8", "name": "\u4e2d\u56fd\u77f3\u6cb9\u52a0\u6cb9\u7ad9(\u4e39\u6893\u5927\u9053)", "type": "\u6c7d\u8f66\u670d\u52a1;\u52a0\u6cb9\u7ad9;\u4e2d\u56fd\u77f3\u6cb9", "address": "\u4e39\u6893\u5927\u9053\u4e0e\u805a\u9f99\u5c71E\u8def\u4ea4\u6c47\u5904\u897f50\u7c73", "lng": 114.38685, "lat": 22.738789}
{"id": "B0FFF4MY83", "name": "\u4e2d\u56fd\u77f3\u6cb9\u6d77\u6ee8\u52a0\u6cb9\u7ad9", "type": "\u6c7d\u8f66\u670d\u52a1;\u52a0\u6cb9\u7ad9;\u4e2d\u56fd\u77f3\u6cb9", "address": "\u6ee8\u6d77\u5927\u9053\u8f85\u8def\u6df1\u5733\u6e7e\u4f53\u80b2\u4e2d\u5fc3\u5317\u95e8", "lng": 113.948138, "lat": 22.520812}	{"id": "1079299882910881530", "name": "\u6df1\u5733\u6e7e\u4f53\u80b2\u4e2d\u5fc3", "type": "\u8fd0\u52a8\u5065\u8eab:\u7efc\u5408\u4f53\u80b2\u573a\u9986", "address": "\u6ee8\u6d77\u5927\u90533001\u53f7", "lng": 113.949699, "lat": 22.51848, "distance": 0}
{"id": "B0FFF34SBN", "name": "\u6fb3\u5eb7\u8fbe\u540d\u8f66\u5e7f\u573a", "type": "\u6c7d\u8f66\u670d\u52a1;\u4e8c\u624b\u8f66\u4ea4\u6613;\u4e8c\u624b\u8f66\u4ea4\u6613", "address": "\u6843\u56ed\u8def1\u53f7", "lng": 114.105839, "lat": 22.558609}	{"id": "B0FFF34SBN", "name": "\u6fb3\u5eb7\u8fbe\u540d\u8f66\u5e7f\u573a", "type": "\u6c7d\u8f66\u670d\u52a1;\u4e8c\u624b\u8f66\u4ea4\u6613;\u4e8c\u624b\u8f66\u4ea4\u6613", "address": "\u6843\u56ed\u8def1\u53f7", "lng": 114.105839, "lat": 22.558609}
{"id": "B0FFFRN9YE", "name": "\u7231\u8054\u6c7d\u914d\u57ce", "type": "\u6c7d\u8f66\u670d\u52a1;\u6c7d\u8f66\u914d\u4ef6\u9500\u552e;\u6c7d\u8f66\u914d\u4ef6\u9500\u552e", "address": "\u6668\u5149\u8def", "lng": 114.234343, "lat": 22.70001}	{"id": "432281403879880145", "name": "\u7fe1\u7fe0\u660e\u73e0\u82b1\u56ed", "type": "\u623f\u4ea7\u5c0f\u533a:\u4f4f\u5b85\u533a:\u4f4f\u5b85\u5c0f\u533a", "address": "\u6668\u5149\u8def9\u53f7", "lng": 114.233643, "lat": 22.700914, "distance": 3.7}
{"id": "B02F38JHUS", "name": "\u5b9d\u71c3\u6cb9\u7ad9", "type": "\u6c7d\u8f66\u670d\u52a1;\u52a0\u6cb9\u7ad9;\u52a0\u6cb9\u7ad9", "address": "\u5b9d\u77f3\u4e1c\u8def161\u53f7", "lng": 113.953017, "lat": 22.682699}
{"id": "B02F301B38", "name": "\u4e2d\u56fd\u77f3\u5316\u5b9d\u5b8f\u76db\u6cb9\u7ad9", "type": "\u6c7d\u8f66\u670d\u52a1;\u52a0\u6cb9\u7ad9;\u4e2d\u56fd\u77f3\u5316", "address": "\u677e\u767d\u8def\u4e0e\u5317\u73af\u8def\u4ea4\u53c9\u53e3\u897f\u5317100\u7c73", "lng": 113.918199, "lat": 22.699699}	{"id": "B02F301B38", "name": "\u4e2d\u56fd\u77f3\u5316\u5b9d\u5b8f\u76db\u6cb9\u7ad9", "type": "\u6c7d\u8f66\u670d\u52a1;\u52a0\u6cb9\u7ad9;\u4e2d\u56fd\u77f3\u5316", "address": "\u677e\u767d\u8def\u4e0e\u5317\u73af\u8def\u4ea4\u53c9\u53e3\u897f\u5317100\u7c73", "lng": 113.918199, "lat": 22.699699}
{"id": "B02F3052CB", "name": "\u4e2d\u56fd\u77f3\u6cb9(\u5751\u6893\u52a0\u6cb9\u7ad9)", "type": "\u6c7d\u8f66\u670d\u52a1;\u52a0\u6cb9\u7ad9;\u4e2d\u56fd\u77f3\u6cb9", "address": "\u6df1\u6c55\u8def\u5751\u6893\u6bb5345\u53f7", "lng": 114.362957, "lat": 22.740202}	{"id": "B02F3052CB", "name": "\u4e2d\u56fd\u77f3\u6cb9(\u5751\u6893\u52a0\u6cb9\u7ad9)", "type": "\u6c7d\u8f66\u670d\u52a1;\u52a0\u6cb9\u7ad9;\u4e2d\u56fd\u77f3\u6cb9", "address": "\u6df1\u6c55\u8def\u5751\u6893\u6bb5345\u53f7", "lng": 114.362957, "lat": 22.740202}
{"id": "B02F30279C", "name": "\u4e2d\u56fd\u77f3\u5316\u5f15\u8fdb\u52a0\u6cb9\u7ad9(\u5de5\u4e1a\u8def)", "type": "\u6c7d\u8f66\u670d\u52a1;\u52a0\u6cb9\u7ad9;\u4e2d\u56fd\u77f3\u5316", "address": "\u6cb9\u677e\u6751\u5de5\u4e1a\u4e1c\u8def84\u53f7", "lng": 114.043049, "lat": 22.639299}	{"id": "B02F30279C", "name": "\u4e2d\u56fd\u77f3\u5316\u5f15\u8fdb\u52a0\u6cb9\u7ad9(\u5de5\u4e1a\u8def)", "type": "\u6c7d\u8f66\u670d\u52a1;\u52a0\u6cb9\u7ad9;\u4e2d\u56fd\u77f3\u5316", "address": "\u6cb9\u677e\u6751\u5de5\u4e1a\u4e1c\u8def84\u53f7", "lng": 114.043049, "lat": 22.639299}
{"id": "B02F30A9RF", "name": "\u4e2d\u56fd\u77f3\u5316\u52a0\u6cb9\u7ad9(\u6843\u56ed\u8def)", "type": "\u6c7d\u8f66\u670d\u52a1;\u52a0\u6cb9\u7ad9;\u4e2d\u56fd\u77f3\u5316", "address": "\u6843\u56ed\u8def228\u53f7", "lng": 114.107106, "lat": 22.559274}	{"id": "B02F30A9RF", "name": "\u4e2d\u56fd\u77f3\u5316\u52a0\u6cb9\u7ad9(\u6843\u56ed\u8def)", "type": "\u6c7d\u8f66\u670d\u52a1;\u52a0\u6cb9\u7ad9;\u4e2d\u56fd\u77f3\u5316", "address": "\u6843\u56ed\u8def228\u53f7", "lng": 114.107106, "lat": 22.559274}
{"id": "B02F37V7IJ", "name": "\u4e2d\u56fd\u77f3\u5316\u9f99\u519b\u52a0\u6cb9\u7ad9(\u4e09\u5408\u8def)", "type": "\u6c7d\u8f66\u670d\u52a1;\u52a0\u6cb9\u7ad9;\u4e2d\u56fd\u77f3\u5316", "address": "\u77f3\u9f99\u8def11\u53f7", "lng": 114.000566, "lat": 22.660504}	{"id": "B02F37V7IJ", "name": "\u4e2d\u56fd\u77f3\u5316\u9f99\u519b\u52a0\u6cb9\u7ad9(\u4e09\u5408\u8def)", "type": "\u6c7d\u8f66\u670d\u52a1;\u52a0\u6cb9\u7ad9;\u4e2d\u56fd\u77f3\u5316", "address": "\u77f3\u9f99\u8def11\u53f7", "lng": 114.000566, "lat": 22.660504}
{"id": "B0FFI1PQMA", "name": "\u5929\u6b23\u6c7d\u8f66\u751f\u6d3b\u9986", "type": "\u6c7d\u8f66\u670d\u52a1;\u6c7d\u8f66\u670d\u52a1\u76f8\u5173;\u6c7d\u8f66\u670d\u52a1\u76f8\u5173|\u9910\u996e\u670d\u52a1;\u9910\u996e\u76f8\u5173\u573a\u6240;\u9910\u996e\u76f8\u5173", "address": "\u6885\u6797\u8def46\u53f7", "lng": 114.064111, "lat": 22.568743}	{"id": "15732645100204615864", "name": "\u6587\u548c\u53cb\u8001\u957f\u6c99\u9f99\u867e\u9986(\u6885\u6797\u5e97)", "type": "\u7f8e\u98df:\u6d77\u9c9c", "address": "\u6885\u6797\u8857\u9053\u6885\u6797\u8def46\u53f7\u5929\u6b23\u6c7d\u8f66\u751f\u6d3b\u9986\u9996\u5c42", "lng": 114.064087, "lat": 22.568747, "distance": 2.4}
{"id": "B0FFHFYHNA", "name": "\u51a0\u5fb7\u77f3\u6cb9\u65b9\u5174\u8fbe\u52a0\u6cb9\u7ad9", "type": "\u6c7d\u8f66\u670d\u52a1;\u52a0\u6cb9\u7ad9;\u52a0\u6cb9\u7ad9", "address": "\u5317\u73af\u5927\u9053\u8f85\u90537037\u53f7", "lng": 113.979545, "lat": 22.553079}	{"id": "B0FFHFYHNA", "name": "\u51a0\u5fb7\u77f3\u6cb9\u65b9\u5174\u8fbe\u52a0\u6cb9\u7ad9", "type": "\u6c7d\u8f66\u670d\u52a1;\u52a0\u6cb9\u7ad9;\u52a0\u6cb9\u7ad9", "address": "\u5317\u73af\u5927\u9053\u8f85\u90537037\u53f7", "lng": 113.979545, "lat": 22.553079}
{"id": "B02F37VJJZ", "name": "\u4e2d\u56fd\u77f3\u6cb9\u7559\u4ed9\u52a0\u6cb9\u7ad9", "type": "\u6c7d\u8f66\u670d\u52a1;\u52a0\u6cb9\u7ad9;\u4e2d\u56fd\u77f3\u6cb9", "address": "\u7559\u4ed9\u5927\u9053\u535a\u6797\u5929\u745e", "lng": 113.973035, "lat": 22.58311}	{"id": "B02F37VJJZ", "name": "\u4e2d\u56fd\u77f3\u6cb9\u7559\u4ed9\u52a0\u6cb9\u7ad9", "type": "\u6c7d\u8f66\u670d\u52a1;\u52a0\u6cb9\u7ad9;\u4e2d\u56fd\u77f3\u6cb9", "address": "\u7559\u4ed9\u5927\u9053\u535a\u6797\u5929\u745e", "lng": 113.973035, "lat": 22.58311}
{"id": "B02F37T4WH", "name": "\u4e2d\u56fd\u77f3\u5316\u6df1\u5733\u89c2\u5e73\u52a0\u6cb9\u7ad9", "type": "\u6c7d\u8f66\u670d\u52a1;\u52a0\u6cb9\u7ad9;\u4e2d\u56fd\u77f3\u5316", "address": "\u89c2\u6f9c\u9547\u89c2\u5e73\u8def186\u53f7", "lng": 114.078781, "lat": 22.710073}	{"id": "B02F37T4WH", "name": "\u4e2d\u56fd\u77f3\u5316\u6df1\u5733\u89c2\u5e73\u52a0\u6cb9\u7ad9", "type": "\u6c7d\u8f66\u670d\u52a1;\u52a0\u6cb9\u7ad9;\u4e2d\u56fd\u77f3\u5316", "address": "\u89c2\u6f9c\u9547\u89c2\u5e73\u8def186\u53f7", "lng": 114.078781, "lat": 22.710073}
{"id": "B02F37VHMO", "name": "\u4e2d\u56fd\u77f3\u5316\u632f\u5eb7\u52a0\u6cb9\u7ad9", "type": "\u6c7d\u8f66\u670d\u52a1;\u52a0\u6cb9\u7ad9;\u4e2d\u56fd\u77f3\u5316", "address": "\u897f\u4e61\u9547 \u5e7f\u6df1\u516c\u8def(\u901a\u8fbe\u96c6\u56e2\u65c1)", "lng": 113.855163, "lat": 22.618072}	{"id": "B02F37VHMO", "name": "\u4e2d\u56fd\u77f3\u5316\u632f\u5eb7\u52a0\u6cb9\u7ad9", "type": "\u6c7d\u8f66\u670d\u52a1;\u52a0\u6cb9\u7ad9;\u4e2d\u56fd\u77f3\u5316", "address": "\u897f\u4e61\u9547 \u5e7f\u6df1\u516c\u8def(\u901a\u8fbe\u96c6\u56e2\u65c1)", "lng": 113.855163, "lat": 22.618072}
{"id": "B02F37T4YA", "name": "\u4e2d\u56fd\u77f3\u5316\u6885\u6c99\u52a0\u6cb9\u7ad9", "type": "\u6c7d\u8f66\u670d\u52a1;\u52a0\u6cb9\u7ad9;\u4e2d\u56fd\u77f3\u5316", "address": "\u91d1\u6c99\u88571\u53f7", "lng": 114.312337, "lat": 22.598944}	{"id": "13754037568294792027", "name": "\u5927\u6885\u6c99\u6e7e\u6e38\u8247\u4f1a", "type": "\u9152\u5e97\u5bbe\u9986:\u661f\u7ea7\u9152\u5e97", "address": "\u76d0\u6885\u8def89", "lng": 114.312233, "lat": 22.598261, "distance": 58.4}
{"id": "B02F37V8BO", "name": "\u51e4\u51f0\u52a0\u6cb9\u7ad9", "type": "\u6c7d\u8f66\u670d\u52a1;\u52a0\u6cb9\u7ad9;\u52a0\u6cb9\u7ad9", "address": "\u798f\u6c38\u51e4\u51f0\u5927\u9053107\u56fd\u9053\u65c1", "lng": 113.833123, "lat": 22.697077}	{"id": "8391893597748756901", "name": "\u51e4\u51f0\u7acb\u4ea4", "type": "\u57fa\u7840\u8bbe\u65bd:\u9053\u8def\u9644\u5c5e:\u6865", "address": "", "lng": 113.832878, "lat": 22.693151, "distance": 71.9}
{"id": "B0FFF4FYQA", "name": "\u4e2d\u56fd\u77f3\u5316\u79d1\u6280\u56ed\u52a0\u6cb9\u7ad9", "type": "\u6c7d\u8f66\u670d\u52a1;\u52a0\u6cb9\u7ad9;\u4e2d\u56fd\u77f3\u5316", "address": "\u767d\u77f3\u8def3699\u53f7", "lng": 113.948396, "lat": 22.53227}
{"id": "B02F37VHNR", "name": "\u4e2d\u56fd\u77f3\u5316\u5eb7\u8fbe\u5c14\u52a0\u6cb9\u7ad9", "type": "\u6c7d\u8f66\u670d\u52a1;\u52a0\u6cb9\u7ad9;\u4e2d\u56fd\u77f3\u5316", "address": "\u5e03\u5409\u9547\u6df1\u60e0\u516c\u8def(\u5927\u82ac\u6751\u8def\u6bb5)\u767e\u5408\u533b\u9662\u65c1\u8fb9", "lng": 114.13919, "lat": 22.615981}	{"id": "B02F37VHNR", "name": "\u4e2d\u56fd\u77f3\u5316\u5eb7\u8fbe\u5c14\u52a0\u6cb9\u7ad9", "type": "\u6c7d\u8f66\u670d\u52a1;\u52a0\u6cb9\u7ad9;\u4e2d\u56fd\u77f3\u5316", "address": "\u5e03\u5409\u9547\u6df1\u60e0\u516c\u8def(\u5927\u82ac\u6751\u8def\u6bb5)\u767e\u5408\u533b\u9662\u65c1\u8fb9", "lng": 114.13919, "lat": 22.615981}
{"id": "B02F37T4UM", "name": "\u4e2d\u56fd\u77f3\u5316\u6df1\u5733\u5b9d\u5b89\u4e1c\u65b9\u52a0\u6cb9\u7ad9", "type": "\u6c7d\u8f66\u670d\u52a1;\u52a0\u6cb9\u7ad9;\u4e2d\u56fd\u77f3\u5316", "address": "\u677e\u5c97\u9547\u5e7f\u6df1\u516c\u8def\u677e\u5c97\u6bb5101\u53f7", "lng": 113.84816, "lat": 22.755766}	{"id": "B02F37T4UM", "name": "\u4e2d\u56fd\u77f3\u5316\u6df1\u5733\u5b9d\u5b89\u4e1c\u65b9\u52a0\u6cb9\u7ad9", "type": "\u6c7d\u8f66\u670d\u52a1;\u52a0\u6cb9\u7ad9;\u4e2d\u56fd\u77f3\u5316", "address": "\u677e\u5c97\u9547\u5e7f\u6df1\u516c\u8def\u677e\u5c97\u6bb5101\u53f7", "lng": 113.84816, "lat": 22.755766}
{"id": "B02F38J5RD", "name": "\u4e2d\u77f3\u6cb9\u78a7\u8f9f\u826f\u5b89\u7530\u52a0\u6cb9\u7ad9", "type": "\u6c7d\u8f66\u670d\u52a1;\u52a0\u6cb9\u7ad9;\u4e2d\u77f3\u6cb9\u78a7\u8f9f", "address": "\u4e39\u5e73\u8def212\u53f7(\u91d1\u7965\u4e1a\u5a31\u4e50\u4e2d\u5fc3\u4e1c\u5357)", "lng": 114.150184, "lat": 22.662626}	{"id": "B02F38J5RD", "name": "\u4e2d\u77f3\u6cb9\u78a7\u8f9f\u826f\u5b89\u7530\u52a0\u6cb9\u7ad9", "type": "\u6c7d\u8f66\u670d\u52a1;\u52a0\u6cb9\u7ad9;\u4e2d\u77f3\u6cb9\u78a7\u8f9f", "address": "\u4e39\u5e73\u8def212\u53f7(\u91d1\u7965\u4e1a\u5a31\u4e50\u4e2d\u5fc3\u4e1c\u5357)", "lng": 114.150184, "lat": 22.662626}
{"id": "B02F37WK9W", "name": "\u65b0\u6865\u6c7d\u914d\u6279\u53d1\u57ce\u4e8c\u671f", "type": "\u6c7d\u8f66\u670d\u52a1;\u6c7d\u8f66\u914d\u4ef6\u9500\u552e;\u6c7d\u8f66\u914d\u4ef6\u9500\u552e", "address": "\u6c99\u4e95\u9547\u65b0\u6865", "lng": 113.847277, "lat": 22.733792}	{"id": "B02F37WK9W", "name": "\u65b0\u6865\u6c7d\u914d\u6279\u53d1\u57ce\u4e8c\u671f", "type": "\u6c7d\u8f66\u670d\u52a1;\u6c7d\u8f66\u914d\u4ef6\u9500\u552e;\u6c7d\u8f66\u914d\u4ef6\u9500\u552e", "address": "\u6c99\u4e95\u9547\u65b0\u6865", "lng": 113.847277, "lat": 22.733792}
{"id": "B02F3007C4", "name": "\u4e2d\u56fd\u77f3\u5316\u4e1c\u65b9\u52a0\u6cb9\u7ad9(\u6cbf\u6cb3\u5357\u8def\u8f85\u8def)", "type": "\u6c7d\u8f66\u670d\u52a1;\u52a0\u6cb9\u7ad9;\u4e2d\u56fd\u77f3\u5316", "address": "\u6cbf\u6cb3\u5357\u8def1189\u53f7(\u6c5f\u80cc\u8def\u53e3)", "lng": 114.126479, "lat": 22.536978}	{"id": "B02F3007C4", "name": "\u4e2d\u56fd\u77f3\u5316\u4e1c\u65b9\u52a0\u6cb9\u7ad9(\u6cbf\u6cb3\u5357\u8def\u8f85\u8def)", "type": "\u6c7d\u8f66\u670d\u52a1;\u52a0\u6cb9\u7ad9;\u4e2d\u56fd\u77f3\u5316", "address": "\u6cbf\u6cb3\u5357\u8def1189\u53f7(\u6c5f\u80cc\u8def\u53e3)", "lng": 114.126479, "lat": 22.536978}
{"id": "B02F37U5UH", "name": "\u4e2d\u56fd\u77f3\u6cb9\u52a0\u6cb9\u7ad9(\u5b9d\u5b89\u5927\u9053)", "type": "\u6c7d\u8f66\u670d\u52a1;\u52a0\u6cb9\u7ad9;\u4e2d\u56fd\u77f3\u6cb9", "address": "\u5b9d\u5b89\u5927\u90535007\u53f7(\u534e\u80dc\u5b9e\u9a8c\u5b66\u6821\u5bf9\u9762)", "lng": 113.840357, "lat": 22.613314}
{"id": "B02F30279A", "name": "\u4e2d\u56fd\u77f3\u5316\u80dc\u9f99\u52a0\u6cb9\u7ad9(\u5e03\u9f99\u8def\u8f85\u8def)", "type": "\u6c7d\u8f66\u670d\u52a1;\u52a0\u6cb9\u7ad9;\u4e2d\u56fd\u77f3\u5316", "address": "\u5e03\u9f99\u8def276\u53f7", "lng": 114.011654, "lat": 22.648193}	{"id": "B02F30279A", "name": "\u4e2d\u56fd\u77f3\u5316\u80dc\u9f99\u52a0\u6cb9\u7ad9(\u5e03\u9f99\u8def\u8f85\u8def)", "type": "\u6c7d\u8f66\u670d\u52a1;\u52a0\u6cb9\u7ad9;\u4e2d\u56fd\u77f3\u5316", "address": "\u5e03\u9f99\u8def276\u53f7", "lng": 114.011654, "lat": 22.648193}
{"id": "B02F37VMQL", "name": "\u4e2d\u5357\u4eba\u9632\u52a0\u6cb9\u7ad9", "type": "\u6c7d\u8f66\u670d\u52a1;\u52a0\u6cb9\u7ad9;\u52a0\u6cb9\u7ad9", "address": "\u9f99\u57ce\u8857\u9053\u9f99\u5e73\u897f\u8def30\u53f7", "lng": 114.228424, "lat": 22.729732}	{"id": "B02F37VMQL", "name": "\u4e2d\u5357\u4eba\u9632\u52a0\u6cb9\u7ad9", "type": "\u6c7d\u8f66\u670d\u52a1;\u52a0\u6cb9\u7ad9;\u52a0\u6cb9\u7ad9", "address": "\u9f99\u57ce\u8857\u9053\u9f99\u5e73\u897f\u8def30\u53f7", "lng": 114.228424, "lat": 22.729732}
{"id": "B02F37VHRA", "name": "\u4e2d\u56fd\u77f3\u5316\u89c2\u6f9c\u52a0\u6cb9\u7ad9(\u89c2\u6f9c\u5927\u9053)", "type": "\u6c7d\u8f66\u670d\u52a1;\u52a0\u6cb9\u7ad9;\u4e2d\u56fd\u77f3\u5316", "address": "\u89c2\u6f9c\u5927\u9053127\u53f7", "lng": 114.042046, "lat": 22.702396}	{"id": "B02F37VHRA", "name": "\u4e2d\u56fd\u77f3\u5316\u89c2\u6f9c\u52a0\u6cb9\u7ad9(\u89c2\u6f9c\u5927\u9053)", "type": "\u6c7d\u8f66\u670d\u52a1;\u52a0\u6cb9\u7ad9;\u4e2d\u56fd\u77f3\u5316", "address": "\u89c2\u6f9c\u5927\u9053127\u53f7", "lng": 114.042046, "lat": 22.702396}
{"id": "B02F37TCH3", "name": "\u6c49\u90fd\u51fa\u79df\u5c0f\u6c7d\u8f66\u6709\u9650\u8d23\u4efb\u516c\u53f8(\u88c5\u4fee\u4e2d)", "type": "\u6c7d\u8f66\u670d\u52a1;\u6c7d\u8f66\u79df\u8d41;\u6c7d\u8f66\u79df\u8d41", "address": "\u6ee8\u6cb3\u8def\u4e0e\u9999\u871c\u6e56\u8def\u4ea4\u6c47\u5904\u5929\u5b89\u521b\u65b0\u79d1\u6280\u5e7f\u573aII\u671f\u897f\u5ea7806", "lng": 114.031876, "lat": 22.529761}	{"id": "4568299305149262653", "name": "\u5929\u53d1\u5927\u53a6AB\u5ea7", "type": "\u623f\u4ea7\u5c0f\u533a:\u5546\u52a1\u697c\u5b87", "address": "\u5929\u5b89\u6570\u7801\u57ceF16\u680b\u5929\u53d1\u5927\u53a6", "lng": 114.031578, "lat": 22.530582, "distance": 96.5}
{"id": "B0FFFPYE6R", "name": "\u91d1\u6765\u8fbe\u6c7d\u914d\u57ce", "type": "\u6c7d\u8f66\u670d\u52a1;\u6c7d\u8f66\u914d\u4ef6\u9500\u552e;\u6c7d\u8f66\u914d\u4ef6\u9500\u552e", "address": "\u4e0b\u6885\u6797\u5317\u73af\u5927\u90537036\u53f7", "lng": 114.027992, "lat": 22.558885}	{"id": "B0FFFPYE6R", "name": "\u91d1\u6765\u8fbe\u6c7d\u914d\u57ce", "type": "\u6c7d\u8f66\u670d\u52a1;\u6c7d\u8f66\u914d\u4ef6\u9500\u552e;\u6c7d\u8f66\u914d\u4ef6\u9500\u552e", "address": "\u4e0b\u6885\u6797\u5317\u73af\u5927\u90537036\u53f7", "lng": 114.027992, "lat": 22.558885}
{"id": "B02F37VD7J", "name": "\u52a0\u5fb7\u58eb\u52a0\u6cb9\u7ad9(\u7f57\u6c99\u8def\u8f85\u8def)", "type": "\u6c7d\u8f66\u670d\u52a1;\u52a0\u6cb9\u7ad9;\u52a0\u5fb7\u58eb", "address": "\u7f57\u6c99\u8def3138\u53f7(\u7f57\u6c99\u8def\u8f85\u8def)", "lng": 114.167218, "lat": 22.560463}	{"id": "B02F37VD7J", "name": "\u52a0\u5fb7\u58eb\u52a0\u6cb9\u7ad9(\u7f57\u6c99\u8def\u8f85\u8def)", "type": "\u6c7d\u8f66\u670d\u52a1;\u52a0\u6cb9\u7ad9;\u52a0\u5fb7\u58eb", "address": "\u7f57\u6c99\u8def3138\u53f7(\u7f57\u6c99\u8def\u8f85\u8def)", "lng": 114.167218, "lat": 22.560463}
{"id": "B02F38IYLA", "name": "\u795e\u5dde\u79df\u8f66(\u5bf0\u5b87\u5e97)", "type": "\u6c7d\u8f66\u670d\u52a1;\u6c7d\u8f66\u79df\u8d41;\u6c7d\u8f66\u79df\u8d41", "address": "\u7ea2\u5cad\u4e2d\u8def1002\u53f7\u5bf0\u5b87\u5927\u9152\u5e971\u5c42", "lng": 114.105364, "lat": 22.54453}	{"id": "9264890060250494976", "name": "\u5bf0\u5b87\u6851\u62ff", "type": "\u5a31\u4e50\u4f11\u95f2:\u6d17\u6d74\u63a8\u62ff\u8db3\u7597", "address": "\u7ea2\u5cad\u4e2d\u8def1002\u53f7\u5bf0\u5b87\u5927\u9152\u5e973\u5c42", "lng": 114.105515, "lat": 22.544703, "distance": 24.7}
{"id": "B02F300AC1", "name": "\u4e2d\u56fd\u77f3\u5316\u4e0a\u6b65\u52a0\u6cb9\u7ad9", "type": "\u6c7d\u8f66\u670d\u52a1;\u52a0\u6cb9\u7ad9;\u4e2d\u56fd\u77f3\u5316", "address": "\u65e0", "lng": 114.087186, "lat": 22.540059}	{"id": "7305561190905377891", "name": "\u57ce\u5bb6\u516c\u5bd3(\u534e\u5f3a\u8def\u5730\u94c1\u7ad9\u5e97)", "type": "\u9152\u5e97\u5bbe\u9986:\u516c\u5bd3\u5f0f\u9152\u5e97", "address": "\u6df1\u5357\u4e2d\u8def2093\u53f7", "lng": 114.087631, "lat": 22.54022, "distance": 48.9}
{"id": "B0FFG735TW", "name": "\u4e2d\u77f3\u6cb9\u78a7\u8f9f\u6df1\u5733\u9e4f\u5dde\u52a0\u6cb9\u7ad9", "type": "\u6c7d\u8f66\u670d\u52a1;\u52a0\u6cb9\u7ad9;\u4e2d\u77f3\u6cb9\u78a7\u8f9f", "address": "\u5b9d\u5b89\u5927\u9053\u4e0e\u6c38\u798f\u8def\u4ea4\u6c47\u5904", "lng": 113.805329, "lat": 22.669311}	{"id": "B0FFG735TW", "name": "\u4e2d\u77f3\u6cb9\u78a7\u8f9f\u6df1\u5733\u9e4f\u5dde\u52a0\u6cb9\u7ad9", "type": "\u6c7d\u8f66\u670d\u52a1;\u52a0\u6cb9\u7ad9;\u4e2d\u77f3\u6cb9\u78a7\u8f9f", "address": "\u5b9d\u5b89\u5927\u9053\u4e0e\u6c38\u798f\u8def\u4ea4\u6c47\u5904", "lng": 113.805329, "lat": 22.669311}
{"id": "B02F37UO0Y", "name": "\u4e2d\u56fd\u77f3\u5316\u52a0\u6cb9\u7ad9(\u7687\u5c97\u8def)", "type": "\u6c7d\u8f66\u670d\u52a1;\u52a0\u6cb9\u7ad9;\u4e2d\u56fd\u77f3\u5316", "address": "\u7687\u5c97\u8def1002\u53f7(\u6df1\u5733\u4e2d\u5fc3\u516c\u56edA\u533a\u9644\u8fd1)", "lng": 114.073997, "lat": 22.531698}	{"id": "9252552343607364465", "name": "\u6df1\u5733\u4e2d\u5fc3\u516c\u56edA\u533a", "type": "\u65c5\u6e38\u666f\u70b9:\u516c\u56ed", "address": "\u7687\u5c97\u8def1002\u6b63\u897f\u65b9\u5411163\u7c73", "lng": 114.075493, "lat": 22.531872, "distance": 0}
{"id": "B02F38JG2G", "name": "\u6d77\u7eb3\u4e8c\u624b\u8f66\u4ea4\u6613\u5e02\u573a", "type": "\u6c7d\u8f66\u670d\u52a1;\u4e8c\u624b\u8f66\u4ea4\u6613;\u4e8c\u624b\u8f66\u4ea4\u6613", "address": "\u798f\u6c38\u9547\u7b2c\u4e00\u5de5\u4e1a\u6751", "lng": 113.832092, "lat": 22.687981}
{"id": "B02F37T4XA", "name": "\u4e2d\u56fd\u77f3\u5316\u576a\u5c71\u52a0\u6cb9\u7ad9", "type": "\u6c7d\u8f66\u670d\u52a1;\u52a0\u6cb9\u7ad9;\u4e2d\u56fd\u77f3\u5316", "address": "\u6df1\u6c55\u8def\u576a\u5c71\u6bb5230\u53f7", "lng": 114.345689, "lat": 22.694244}
{"id": "B02F37T4WQ", "name": "\u4e2d\u56fd\u77f3\u5316\u73af\u89c2\u52a0\u6cb9\u7ad9", "type": "\u6c7d\u8f66\u670d\u52a1;\u52a0\u6cb9\u7ad9;\u4e2d\u56fd\u77f3\u5316", "address": "\u89c2\u6f9c\u5927\u9053\u73af\u89c2\u5357\u8def88\u53f7", "lng": 114.081526, "lat": 22.692437}	{"id": "B02F37T4WQ", "name": "\u4e2d\u56fd\u77f3\u5316\u73af\u89c2\u52a0\u6cb9\u7ad9", "type": "\u6c7d\u8f66\u670d\u52a1;\u52a0\u6cb9\u7ad9;\u4e2d\u56fd\u77f3\u5316", "address": "\u89c2\u6f9c\u5927\u9053\u73af\u89c2\u5357\u8def88\u53f7", "lng": 114.081526, "lat": 22.692437}
{"id": "B02F37T4PD", "name": "\u4e2d\u56fd\u77f3\u5316\u9e92\u9e9f\u52a0\u6cb9\u7ad9(\u5357\u6d77\u5927\u9053)", "type": "\u6c7d\u8f66\u670d\u52a1;\u52a0\u6cb9\u7ad9;\u4e2d\u56fd\u77f3\u5316", "address": "\u5357\u6d77\u5927\u90533665\u53f7", "lng": 113.933304, "lat": 22.560323}	{"id": "2246107435690005019", "name": "\u65b0\u6e2f\u91cd\u6c7d\u6c7d\u8f66\u7ef4\u4fee\u4e2d\u5fc3", "type": "\u6c7d\u8f66:\u6c7d\u8f66\u9500\u552e", "address": "\u5357\u6d77\u5927\u90533669\u53f7", "lng": 113.933281, "lat": 22.560881, "distance": 30.3}
{"id": "B02F37T4V6", "name": "\u4e2d\u56fd\u77f3\u5316\u897f\u4e61\u52a0\u6cb9\u7ad9(\u5e7f\u6df1\u516c\u8def\u8f85\u8def)", "type": "\u6c7d\u8f66\u670d\u52a1;\u52a0\u6cb9\u7ad9;\u4e2d\u56fd\u77f3\u5316", "address": "\u5e7f\u6df1\u516c\u8def\u897f\u4e61\u6bb5116\u53f7", "lng": 113.865144, "lat": 22.601746}	{"id": "B02F37T4V6", "name": "\u4e2d\u56fd\u77f3\u5316\u897f\u4e61\u52a0\u6cb9\u7ad9(\u5e7f\u6df1\u516c\u8def\u8f85\u8def)", "type": "\u6c7d\u8f66\u670d\u52a1;\u52a0\u6cb9\u7ad9;\u4e2d\u56fd\u77f3\u5316", "address": "\u5e7f\u6df1\u516c\u8def\u897f\u4e61\u6bb5116\u53f7", "lng": 113.865144, "lat": 22.601746}
{"id": "B02F37VHDR", "name": "\u9ad8\u9014\u6a2a\u5c97\u80fd\u6e90\u519c\u673a\u52a0\u6cb9\u7ad9", "type": "\u6c7d\u8f66\u670d\u52a1;\u52a0\u6cb9\u7ad9;\u52a0\u6cb9\u7ad9", "address": "\u9f99\u5c97\u5927\u9053\u6a2a\u5c97\u6bb54079", "lng": 114.201454, "lat": 22.64322}	{"id": "B02F37VHDR", "name": "\u9ad8\u9014\u6a2a\u5c97\u80fd\u6e90\u519c\u673a\u52a0\u6cb9\u7ad9", "type": "\u6c7d\u8f66\u670d\u52a1;\u52a0\u6cb9\u7ad9;\u52a0\u6cb9\u7ad9", "address": "\u9f99\u5c97\u5927\u9053\u6a2a\u5c97\u6bb54079", "lng": 114.201454, "lat": 22.64322}
{"id": "B02F305FVF", "name": "\u52a0\u5fb7\u58eb\u52a0\u6cb9\u7ad9(\u5317\u73af\u5927\u9053\u8f85\u8def)", "type": "\u6c7d\u8f66\u670d\u52a1;\u52a0\u6cb9\u7ad9;\u52a0\u5fb7\u58eb", "address": "\u5317\u73af\u5927\u9053\u8f85\u9053\u6c99\u6cb3\u5317\u73af\u7acb\u4ea4\u65c1(\u5b9c\u5bb6\u5bb6\u5c45\u5bf9\u9762)", "lng": 113.963674, "lat": 22.552466}
{"id": "B02F38IU67", "name": "\u4e2d\u56fd\u77f3\u5316\u5b9d\u9f99\u52a0\u6cb9\u7ad9", "type": "\u6c7d\u8f66\u670d\u52a1;\u52a0\u6cb9\u7ad9;\u4e2d\u56fd\u77f3\u5316", "address": "\u5b9d\u8377\u5927\u905339\u53f7", "lng": 114.299669, "lat": 22.687964}	{"id": "B02F38IU67", "name": "\u4e2d\u56fd\u77f3\u5316\u5b9d\u9f99\u52a0\u6cb9\u7ad9", "type": "\u6c7d\u8f66\u670d\u52a1;\u52a0\u6cb9\u7ad9;\u4e2d\u56fd\u77f3\u5316", "address": "\u5b9d\u8377\u5927\u905339\u53f7", "lng": 114.299669, "lat": 22.687964}
{"id": "B02F37UD2U", "name": "\u4e2d\u56fd\u77f3\u5316\u52a0\u6cb9\u7ad9", "type": "\u6c7d\u8f66\u670d\u52a1;\u52a0\u6cb9\u7ad9;\u4e2d\u56fd\u77f3\u5316", "address": "\u4fdd\u7a0e\u533a\u83e9\u63d0\u8def1\u53f7\u96a7\u9053\u65c1\u670d\u52a1\u533a", "lng": 114.061078, "lat": 22.512853}	{"id": "11267329169389112586", "name": "\u798f\u7530\u4fdd\u7a0e\u533a", "type": "\u623f\u4ea7\u5c0f\u533a:\u4ea7\u4e1a\u56ed\u533a", "address": "\u5de1\u903b\u8def", "lng": 114.055733, "lat": 22.509554, "distance": 0}
{"id": "B0FFIKGCGR", "name": "\u9752\u79be\u897f\u4e3d\u82b1\u5349\u4e2d\u5fc3\u5145\u7535\u7ad9", "type": "\u6c7d\u8f66\u670d\u52a1;\u6c7d\u8f66\u670d\u52a1\u76f8\u5173;\u6c7d\u8f66\u670d\u52a1\u76f8\u5173", "address": "\u897f\u4e3d\u8857\u9053\u6c99\u6cb3\u897f\u8def4821\u53f7", "lng": 113.937074, "lat": 22.602155}
{"id": "B02F37VNCA", "name": "\u4e2d\u56fd\u77f3\u5316\u65b0\u9f99\u6d32\u52a0\u6cb9\u7ad9", "type": "\u6c7d\u8f66\u670d\u52a1;\u52a0\u6cb9\u7ad9;\u4e2d\u56fd\u77f3\u5316", "address": "\u9f99\u5c97\u5927\u90537010\u53f7(\u6a2a\u5c97\u6bb5)", "lng": 114.222551, "lat": 22.668992}	{"id": "B02F37VNCA", "name": "\u4e2d\u56fd\u77f3\u5316\u65b0\u9f99\u6d32\u52a0\u6cb9\u7ad9", "type": "\u6c7d\u8f66\u670d\u52a1;\u52a0\u6cb9\u7ad9;\u4e2d\u56fd\u77f3\u5316", "address": "\u9f99\u5c97\u5927\u90537010\u53f7(\u6a2a\u5c97\u6bb5)", "lng": 114.222551, "lat": 22.668992}
{"id": "B02F38IO6J", "name": "\u4e00\u55e8\u79df\u8f66(\u5b9d\u5b89\u5e97)", "type": "\u6c7d\u8f66\u670d\u52a1;\u6c7d\u8f66\u79df\u8d41;\u6c7d\u8f66\u79df\u8d41", "address": "\u5b9d\u6e90\u5357\u8def290\u53f7", "lng": 113.876593, "lat": 22.559133}
{"id": "B02F30A14W", "name": "\u5929\u5065\u666f\u7530\u52a0\u6cb9\u7ad9", "type": "\u6c7d\u8f66\u670d\u52a1;\u52a0\u6cb9\u7ad9;\u52a0\u6cb9\u7ad9", "address": "\u666f\u7530\u897f\u8def28\u53f7", "lng": 114.040832, "lat": 22.550038}	{"id": "9980797572195548890", "name": "\u5929\u5065\u5de5\u4e1a\u533a", "type": "\u623f\u4ea7\u5c0f\u533a:\u4ea7\u4e1a\u56ed\u533a", "address": "\u5546\u62a5\u8def80\u53f7", "lng": 114.042099, "lat": 22.54973, "distance": 0}
{"id": "B02F37T4WA", "name": "\u4e2d\u56fd\u77f3\u5316\u52a0\u6cb9\u7ad9", "type": "\u6c7d\u8f66\u670d\u52a1;\u52a0\u6cb9\u7ad9;\u4e2d\u56fd\u77f3\u5316", "address": "\u9f99\u5c97\u5927\u9053(\u576a\u5730\u6bb5)4064\u53f7", "lng": 114.31798, "lat": 22.779936}	{"id": "B02F37T4WA", "name": "\u4e2d\u56fd\u77f3\u5316\u52a0\u6cb9\u7ad9", "type": "\u6c7d\u8f66\u670d\u52a1;\u52a0\u6cb9\u7ad9;\u4e2d\u56fd\u77f3\u5316", "address": "\u9f99\u5c97\u5927\u9053(\u576a\u5730\u6bb5)4064\u53f7", "lng": 114.31798, "lat": 22.779936}
{"id": "B02F30258F", "name": "\u4fa8\u9999\u52a0\u6cb9\u7ad9", "type": "\u6c7d\u8f66\u670d\u52a1;\u52a0\u6cb9\u7ad9;\u52a0\u6cb9\u7ad9", "address": "\u9999\u5c71\u897f\u88571\u53f7", "lng": 113.979137, "lat": 22.550037}	{"id": "B02F30258F", "name": "\u4fa8\u9999\u52a0\u6cb9\u7ad9", "type": "\u6c7d\u8f66\u670d\u52a1;\u52a0\u6cb9\u7ad9;\u52a0\u6cb9\u7ad9", "address": "\u9999\u5c71\u897f\u88571\u53f7", "lng": 113.979137, "lat": 22.550037}
{"id": "B02F38IRN8", "name": "\u4e2d\u56fd\u77f3\u5316\u71d5\u5b50\u5cad\u52a0\u6cb9\u7ad9", "type": "\u6c7d\u8f66\u670d\u52a1;\u52a0\u6cb9\u7ad9;\u4e2d\u56fd\u77f3\u5316", "address": "\u91d1\u725b\u8def17\u53f7", "lng": 114.359971, "lat": 22.702207}	{"id": "B02F38IRN8", "name": "\u4e2d\u56fd\u77f3\u5316\u71d5\u5b50\u5cad\u52a0\u6cb9\u7ad9", "type": "\u6c7d\u8f66\u670d\u52a1;\u52a0\u6cb9\u7ad9;\u4e2d\u56fd\u77f3\u5316", "address": "\u91d1\u725b\u8def17\u53f7", "lng": 114.359971, "lat": 22.702207}
{"id": "B02F37T4YN", "name": "\u4e2d\u56fd\u77f3\u5316\u52a0\u6cb9\u7ad9(\u6ee8\u6cb3\u5927\u9053\u8f85\u9053)", "type": "\u6c7d\u8f66\u670d\u52a1;\u52a0\u6cb9\u7ad9;\u4e2d\u56fd\u77f3\u5316", "address": "\u6ee8\u6cb3\u5927\u9053\u9526\u5dde\u82b1\u56ed\u65c1", "lng": 114.04437, "lat": 22.527548}
{"id": "B02F3027AD", "name": "\u4e2d\u56fd\u77f3\u5316\u9e4f\u7af9\u6e90\u52a0\u6cb9\u7ad9", "type": "\u6c7d\u8f66\u670d\u52a1;\u52a0\u6cb9\u7ad9;\u4e2d\u56fd\u77f3\u5316", "address": "\u519c\u6797\u8def1-1\u53f7", "lng": 114.018142, "lat": 22.536119}	{"id": "B02F3027AD", "name": "\u4e2d\u56fd\u77f3\u5316\u9e4f\u7af9\u6e90\u52a0\u6cb9\u7ad9", "type": "\u6c7d\u8f66\u670d\u52a1;\u52a0\u6cb9\u7ad9;\u4e2d\u56fd\u77f3\u5316", "address": "\u519c\u6797\u8def1-1\u53f7", "lng": 114.018142, "lat": 22.536119}
{"id": "B02F37U4WC", "name": "\u4e2d\u56fd\u77f3\u5316\u52a0\u6cb9\u7ad9", "type": "\u6c7d\u8f66\u670d\u52a1;\u52a0\u6cb9\u7ad9;\u4e2d\u56fd\u77f3\u5316", "address": "\u6885\u89c2\u9ad8\u901f\u516c\u8def\u65c1", "lng": 114.035775, "lat": 22.761813}	{"id": "B02F37U4WC", "name": "\u4e2d\u56fd\u77f3\u5316\u52a0\u6cb9\u7ad9", "type": "\u6c7d\u8f66\u670d\u52a1;\u52a0\u6cb9\u7ad9;\u4e2d\u56fd\u77f3\u5316", "address": "\u6885\u89c2\u9ad8\u901f\u516c\u8def\u65c1", "lng": 114.035775, "lat": 22.761813}
{"id": "B02F300893", "name": "\u4e2d\u56fd\u77f3\u5316\u7ea2\u8354\u52a0\u6cb9\u7ad9", "type": "\u6c7d\u8f66\u670d\u52a1;\u52a0\u6cb9\u7ad9;\u4e2d\u56fd\u77f3\u5316", "address": "\u7ea2\u8354\u8def2013\u53f7", "lng": 114.091158, "lat": 22.548587}	{"id": "11990176963510828090", "name": "\u5b9e\u9a8c\u5b66\u6821\u603b\u7ad9\u2462\u516c\u4ea4\u7ad9", "type": "\u57fa\u7840\u8bbe\u65bd:\u4ea4\u901a\u8bbe\u65bd:\u516c\u4ea4\u8f66\u7ad9", "address": "", "lng": 114.090111, "lat": 22.549204, "distance": 79.6}
{"id": "B02F38J3P3", "name": "\u4e2d\u56fd\u77f3\u5316\u7ca4\u6d77\u95e8\u52a0\u6cb9\u7ad9", "type": "\u6c7d\u8f66\u670d\u52a1;\u52a0\u6cb9\u7ad9;\u4e2d\u56fd\u77f3\u5316", "address": "\u6df1\u5357\u5927\u90539825\u53f7", "lng": 113.941924, "lat": 22.538986}	{"id": "B02F38J3P3", "name": "\u4e2d\u56fd\u77f3\u5316\u7ca4\u6d77\u95e8\u52a0\u6cb9\u7ad9", "type": "\u6c7d\u8f66\u670d\u52a1;\u52a0\u6cb9\u7ad9;\u4e2d\u56fd\u77f3\u5316", "address": "\u6df1\u5357\u5927\u90539825\u53f7", "lng": 113.941924, "lat": 22.538986}
{"id": "B02F37V7J4", "name": "\u4e2d\u56fd\u77f3\u5316\u798f\u6c38\u52a0\u6cb9\u7ad9", "type": "\u6c7d\u8f66\u670d\u52a1;\u52a0\u6cb9\u7ad9;\u4e2d\u56fd\u77f3\u5316", "address": "\u798f\u6c38\u5927\u9053\u4e0e\u5e7f\u6df1\u516c\u8def\u4ea4\u6c47\u5904\u4e1c\u5357\u89d2", "lng": 113.829403, "lat": 22.673855}	{"id": "B02F37V7J4", "name": "\u4e2d\u56fd\u77f3\u5316\u798f\u6c38\u52a0\u6cb9\u7ad9", "type": "\u6c7d\u8f66\u670d\u52a1;\u52a0\u6cb9\u7ad9;\u4e2d\u56fd\u77f3\u5316", "address": "\u798f\u6c38\u5927\u9053\u4e0e\u5e7f\u6df1\u516c\u8def\u4ea4\u6c47\u5904\u4e1c\u5357\u89d2", "lng": 113.829403, "lat": 22.673855}
{"id": "B0FFFOXLNY", "name": "\u795e\u5dde\u79df\u8f66(\u5357\u5c71\u79d1\u6280\u56ed\u5e97)", "type": "\u6c7d\u8f66\u670d\u52a1;\u6c7d\u8f66\u79df\u8d41;\u6c7d\u8f66\u79df\u8d41", "address": "\u9ad8\u65b0\u5357\u4e03\u905312\u53f7\u60e0\u6052\u96c6\u56e2\u5927\u697c1\u5c42", "lng": 113.947589, "lat": 22.534203}
{"id": "B02F37T4XB", "name": "\u4e2d\u56fd\u77f3\u5316\u88d5\u5f69\u9f99\u52a0\u6cb9\u7ad9", "type": "\u6c7d\u8f66\u670d\u52a1;\u52a0\u6cb9\u7ad9;\u4e2d\u56fd\u77f3\u5316", "address": "\u9f99\u5c97\u9547\u9f99\u5c97\u5927\u9053\u5357\u8054\u6bb55001\u53f7", "lng": 114.264499, "lat": 22.722121}	{"id": "B02F37T4XB", "name": "\u4e2d\u56fd\u77f3\u5316\u88d5\u5f69\u9f99\u52a0\u6cb9\u7ad9", "type": "\u6c7d\u8f66\u670d\u52a1;\u52a0\u6cb9\u7ad9;\u4e2d\u56fd\u77f3\u5316", "address": "\u9f99\u5c97\u9547\u9f99\u5c97\u5927\u9053\u5357\u8054\u6bb55001\u53f7", "lng": 114.264499, "lat": 22.722121}
{"id": "B02F37T4V3", "name": "\u4e2d\u56fd\u77f3\u5316\u5317\u9f99\u52a0\u6cb9\u7ad9", "type": "\u6c7d\u8f66\u670d\u52a1;\u52a0\u6cb9\u7ad9;\u4e2d\u56fd\u77f3\u5316", "address": "\u5b9d\u77f3\u897f\u8def106\u53f7\u77f3\u5ca9\u6c7d\u8f66\u7ad9\u65c1", "lng": 113.930286, "lat": 22.683104}	{"id": "B02F37T4V3", "name": "\u4e2d\u56fd\u77f3\u5316\u5317\u9f99\u52a0\u6cb9\u7ad9", "type": "\u6c7d\u8f66\u670d\u52a1;\u52a0\u6cb9\u7ad9;\u4e2d\u56fd\u77f3\u5316", "address": "\u5b9d\u77f3\u897f\u8def106\u53f7\u77f3\u5ca9\u6c7d\u8f66\u7ad9\u65c1", "lng": 113.930286, "lat": 22.683104}
{"id": "B02F37VKA8", "name": "\u4e2d\u56fd\u77f3\u6cb9\u4e2d\u80dc\u52a0\u6cb9\u7ad9", "type": "\u6c7d\u8f66\u670d\u52a1;\u52a0\u6cb9\u7ad9;\u4e2d\u56fd\u77f3\u6cb9", "address": "\u89c2\u5149\u8def\u5317\u4fa7\u5927\u6c34\u5751", "lng": 114.021377, "lat": 22.731173}	{"id": "B02F37VKA8", "name": "\u4e2d\u56fd\u77f3\u6cb9\u4e2d\u80dc\u52a0\u6cb9\u7ad9", "type": "\u6c7d\u8f66\u670d\u52a1;\u52a0\u6cb9\u7ad9;\u4e2d\u56fd\u77f3\u6cb9", "address": "\u89c2\u5149\u8def\u5317\u4fa7\u5927\u6c34\u5751", "lng": 114.021377, "lat": 22.731173}
{"id": "B02F37T4UP", "name": "\u4e2d\u56fd\u77f3\u5316\u5858\u5c3e\u52a0\u6cb9\u7ad9", "type": "\u6c7d\u8f66\u670d\u52a1;\u52a0\u6cb9\u7ad9;\u4e2d\u56fd\u77f3\u5316", "address": "\u677e\u767d\u8def4119\u53f7", "lng": 113.906023, "lat": 22.754567}	{"id": "B02F37T4UP", "name": "\u4e2d\u56fd\u77f3\u5316\u5858\u5c3e\u52a0\u6cb9\u7ad9", "type": "\u6c7d\u8f66\u670d\u52a1;\u52a0\u6cb9\u7ad9;\u4e2d\u56fd\u77f3\u5316", "address": "\u677e\u767d\u8def4119\u53f7", "lng": 113.906023, "lat": 22.754567}
{"id": "B02F37T4XF", "name": "\u4e2d\u56fd\u77f3\u5316\u91d1\u9f99\u5b89\u52a0\u6cb9\u7ad9", "type": "\u6c7d\u8f66\u670d\u52a1;\u52a0\u6cb9\u7ad9;\u4e2d\u56fd\u77f3\u5316", "address": "\u6885\u9f99\u8def", "lng": 114.034072, "lat": 22.618689}
{"id": "B02F37VEFI", "name": "\u4e2d\u56fd\u77f3\u5316\u83b2\u5858\u52a0\u6cb9\u7ad9(\u7f57\u6c99\u8def)", "type": "\u6c7d\u8f66\u670d\u52a1;\u52a0\u6cb9\u7ad9;\u4e2d\u56fd\u77f3\u5316", "address": "\u7f57\u6c99\u8def2043\u53f7", "lng": 114.178539, "lat": 22.559289}
{"id": "B02F37T4YX", "name": "\u4e2d\u56fd\u77f3\u6cb9\u52a0\u6cb9\u7ad9", "type": "\u6c7d\u8f66\u670d\u52a1;\u52a0\u6cb9\u7ad9;\u4e2d\u56fd\u77f3\u6cb9", "address": "\u7b0b\u5c97\u4e1c\u8def3025\u53f7(\u5e1d\u8c6a\u9152\u5e97\u659c\u5bf9\u9762)", "lng": 114.106273, "lat": 22.555454}	{"id": "B02F37T4YX", "name": "\u4e2d\u56fd\u77f3\u6cb9\u52a0\u6cb9\u7ad9", "type": "\u6c7d\u8f66\u670d\u52a1;\u52a0\u6cb9\u7ad9;\u4e2d\u56fd\u77f3\u6cb9", "address": "\u7b0b\u5c97\u4e1c\u8def3025\u53f7(\u5e1d\u8c6a\u9152\u5e97\u659c\u5bf9\u9762)", "lng": 114.106273, "lat": 22.555454}
{"id": "B02F37WGKD", "name": "\u4e00\u901a\u4e8c\u624b\u8f66(\u6df1\u5733\u65d7\u8230\u5e97)", "type": "\u6c7d\u8f66\u670d\u52a1;\u4e8c\u624b\u8f66\u4ea4\u6613;\u4e8c\u624b\u8f66\u4ea4\u6613", "address": "\u65e0", "lng": 113.964978, "lat": 22.566986}	{"id": "17581244898428005321", "name": "\u6c47\u6587\u82d14\u53f7\u697c", "type": "\u623f\u4ea7\u5c0f\u533a:\u623f\u4ea7\u5c0f\u533a\u9644\u5c5e", "address": "", "lng": 113.964211, "lat": 22.566465, "distance": 97}
{"id": "B02F37TQCL", "name": "\u4e2d\u56fd\u77f3\u6cb9\u52a0\u6cb9\u7ad9(\u798f\u5f3a\u8def)", "type": "\u6c7d\u8f66\u670d\u52a1;\u52a0\u6cb9\u7ad9;\u4e2d\u56fd\u77f3\u6cb9", "address": "\u798f\u5f3a\u8def1060\u53f7", "lng": 114.067805, "lat": 22.521808}	{"id": "B02F37TQCL", "name": "\u4e2d\u56fd\u77f3\u6cb9\u52a0\u6cb9\u7ad9(\u798f\u5f3a\u8def)", "type": "\u6c7d\u8f66\u670d\u52a1;\u52a0\u6cb9\u7ad9;\u4e2d\u56fd\u77f3\u6cb9", "address": "\u798f\u5f3a\u8def1060\u53f7", "lng": 114.067805, "lat": 22.521808}
{"id": "B02F37T4YU", "name": "\u4e2d\u56fd\u77f3\u5316\u7fe0\u7af9\u52a0\u6cb9\u7ad9(\u7530\u8d1d\u4e09\u8def)", "type": "\u6c7d\u8f66\u670d\u52a1;\u52a0\u6cb9\u7ad9;\u4e2d\u56fd\u77f3\u5316", "address": "\u7530\u8d1d\u4e09\u8def10\u53f7", "lng": 114.129008, "lat": 22.564781}	{"id": "1339611443464868549", "name": "\u6e58\u6e58\u4eba\u5bb6\u571f\u83dc\u9986", "type": "\u7f8e\u98df:\u4e2d\u9910\u5385:\u6e58\u83dc", "address": "\u8d1d\u4e3d\u5357\u8def48\u53f7\u91d1\u4e3d\u8c6a\u82d1\u4e1c\u4fa7", "lng": 114.12825, "lat": 22.564981, "distance": 80.8}
{"id": "B02F37V3N3", "name": "\u4e2d\u56fd\u77f3\u6cb9\u52a0\u6cb9\u7ad9(\u540e\u6d77\u5927\u9053)", "type": "\u6c7d\u8f66\u670d\u52a1;\u52a0\u6cb9\u7ad9;\u4e2d\u56fd\u77f3\u6cb9", "address": "\u540e\u6d77\u5927\u90531037-1\u53f7", "lng": 113.934058, "lat": 22.491939}	{"id": "B02F37V3N3", "name": "\u4e2d\u56fd\u77f3\u6cb9\u52a0\u6cb9\u7ad9(\u540e\u6d77\u5927\u9053)", "type": "\u6c7d\u8f66\u670d\u52a1;\u52a0\u6cb9\u7ad9;\u4e2d\u56fd\u77f3\u6cb9", "address": "\u540e\u6d77\u5927\u90531037-1\u53f7", "lng": 113.934058, "lat": 22.491939}
{"id": "B02F302121", "name": "\u4e2d\u56fd\u77f3\u5316\u52a0\u6cb9\u7ad9(\u6ee8\u6cb3\u5927\u9053\u8f85\u9053)", "type": "\u6c7d\u8f66\u670d\u52a1;\u52a0\u6cb9\u7ad9;\u4e2d\u56fd\u77f3\u5316", "address": "\u6ee8\u6cb3\u5927\u90539278\u53f7(\u5929\u5b89\u82b1\u56ed\u65c1)", "lng": 114.035001, "lat": 22.527988}	{"id": "B02F302121", "name": "\u4e2d\u56fd\u77f3\u5316\u52a0\u6cb9\u7ad9(\u6ee8\u6cb3\u5927\u9053\u8f85\u9053)", "type": "\u6c7d\u8f66\u670d\u52a1;\u52a0\u6cb9\u7ad9;\u4e2d\u56fd\u77f3\u5316", "address": "\u6ee8\u6cb3\u5927\u90539278\u53f7(\u5929\u5b89\u82b1\u56ed\u65c1)", "lng": 114.035001, "lat": 22.527988}
{"id": "B02F300139", "name": "\u4e2d\u56fd\u77f3\u5316\u4e1c\u661f\u52a0\u6cb9\u7ad9", "type": "\u6c7d\u8f66\u670d\u52a1;\u52a0\u6cb9\u7ad9;\u4e2d\u56fd\u77f3\u5316", "address": "\u5317\u5c71\u9053302\u53f7", "lng": 114.251827, "lat": 22.596317}	{"id": "B02F300139", "name": "\u4e2d\u56fd\u77f3\u5316\u4e1c\u661f\u52a0\u6cb9\u7ad9", "type": "\u6c7d\u8f66\u670d\u52a1;\u52a0\u6cb9\u7ad9;\u4e2d\u56fd\u77f3\u5316", "address": "\u5317\u5c71\u9053302\u53f7", "lng": 114.251827, "lat": 22.596317}
{"id": "B02F306AFU", "name": "\u51a0\u5fb7\u77f3\u6cb9\u5a01\u7a0b\u52a0\u6cb9\u7ad9", "type": "\u6c7d\u8f66\u670d\u52a1;\u52a0\u6cb9\u7ad9;\u52a0\u6cb9\u7ad9", "address": "\u65b0\u5b89\u516d\u8def1051\u53f7", "lng": 113.875916, "lat": 22.564108}	{"id": "B02F306AFU", "name": "\u51a0\u5fb7\u77f3\u6cb9\u5a01\u7a0b\u52a0\u6cb9\u7ad9", "type": "\u6c7d\u8f66\u670d\u52a1;\u52a0\u6cb9\u7ad9;\u52a0\u6cb9\u7ad9", "address": "\u65b0\u5b89\u516d\u8def1051\u53f7", "lng": 113.875916, "lat": 22.564108}
{"id": "B02F37VNCC", "name": "\u4e2d\u56fd\u77f3\u5316\u897f\u90e8\u901a\u9053\u7b2c\u4e00\u52a0\u6cb9\u7ad9", "type": "\u6c7d\u8f66\u670d\u52a1;\u52a0\u6cb9\u7ad9;\u4e2d\u56fd\u77f3\u5316", "address": "\u6d88\u9632\u4e00\u9053(\u6df1\u5733\u6e7e\u51fa\u5165\u5883\u68c0\u9a8c\u68c0\u75ab\u5c40\u4e1c\u5357)", "lng": 113.947415, "lat": 22.500987}	{"id": "14274562580560874073", "name": "\u6df1\u5733\u6e7e\u53e3\u5cb8", "type": "\u57fa\u7840\u8bbe\u65bd:\u4ea4\u901a\u8bbe\u65bd:\u8fc7\u5883\u53e3\u5cb8", "address": "\u671b\u6d77\u8def\u9644\u8fd1", "lng": 113.947441, "lat": 22.496193, "distance": 0}
{"id": "B02F37WH2G", "name": "\u597d\u8fd0\u6765(\u65b0\u5b89\u4e00\u8def)", "type": "\u6c7d\u8f66\u670d\u52a1;\u6c7d\u8f66\u517b\u62a4/\u88c5\u9970;\u6c7d\u8f66\u517b\u62a4", "address": "39\u533a\u5b9d\u57ce\u5927\u53a61\u5355\u51436-7\u5c42", "lng": 113.905372, "lat": 22.556285}
{"id": "B02F37VHSL", "name": "\u52a0\u5fb7\u58eb\u52a0\u6cb9\u7ad9(\u5742\u7530\u7ad9)", "type": "\u6c7d\u8f66\u670d\u52a1;\u52a0\u6cb9\u7ad9;\u52a0\u5fb7\u58eb", "address": "\u4e94\u548c\u5927\u9053\u535780-1\u53f7", "lng": 114.061236, "lat": 22.62042}	{"id": "B02F37VHSL", "name": "\u52a0\u5fb7\u58eb\u52a0\u6cb9\u7ad9(\u5742\u7530\u7ad9)", "type": "\u6c7d\u8f66\u670d\u52a1;\u52a0\u6cb9\u7ad9;\u52a0\u5fb7\u58eb", "address": "\u4e94\u548c\u5927\u9053\u535780-1\u53f7", "lng": 114.061236, "lat": 22.62042}
{"id": "B02F3064NH", "name": "\u4e2d\u56fd\u77f3\u5316(\u6052\u4e30\u52a0\u6cb9\u7ad9)", "type": "\u6c7d\u8f66\u670d\u52a1;\u52a0\u6cb9\u7ad9;\u4e2d\u56fd\u77f3\u5316", "address": "\u6d32\u77f3\u8def737\u53f7", "lng": 113.865289, "lat": 22.63068}	{"id": "B02F3064NH", "name": "\u4e2d\u56fd\u77f3\u5316(\u6052\u4e30\u52a0\u6cb9\u7ad9)", "type": "\u6c7d\u8f66\u670d\u52a1;\u52a0\u6cb9\u7ad9;\u4e2d\u56fd\u77f3\u5316", "address": "\u6d32\u77f3\u8def737\u53f7", "lng": 113.865289, "lat": 22.63068}
{"id": "B02F37T4XM", "name": "\u4e2d\u56fd\u77f3\u5316\u52a0\u6cb9\u7ad9", "type": "\u6c7d\u8f66\u670d\u52a1;\u52a0\u6cb9\u7ad9;\u4e2d\u56fd\u77f3\u5316", "address": "\u5e03\u5409\u9547\u5742\u7530\u5e03\u9f99\u516c\u8def599\u53f7", "lng": 114.067281, "lat": 22.626559}
{"id": "B02F38JHQH", "name": "\u534e\u6e90\u8fbe\u6c7d\u914d", "type": "\u6c7d\u8f66\u670d\u52a1;\u6c7d\u8f66\u914d\u4ef6\u9500\u552e;\u6c7d\u8f66\u914d\u4ef6\u9500\u552e", "address": "\u5927\u6d6a\u8857\u9053\u6f6d\u7f57\u8def\u53e3\u6c7d\u914d\u5927\u53a6\u4e00\u697c", "lng": 113.996417, "lat": 22.665656}	{"id": "12568571381833395644", "name": "\u8c2d\u7f57\u65b0\u4e8c\u6751", "type": "\u623f\u4ea7\u5c0f\u533a:\u4f4f\u5b85\u533a:\u4f4f\u5b85\u5c0f\u533a", "address": "\u6f6d\u7f57\u8def\u4e09\u5408\u534e\u4fa8\u65b0\u6751\u8c2d\u7f57\u65b0\u4e8c\u6751", "lng": 113.996964, "lat": 22.665819, "distance": 59.3}
{"id": "B02F37T4X9", "name": "\u4e2d\u56fd\u77f3\u5316\u677e\u5b50\u5751\u52a0\u6cb9\u7ad9", "type": "\u6c7d\u8f66\u670d\u52a1;\u52a0\u6cb9\u7ad9;\u4e2d\u56fd\u77f3\u5316", "address": "\u6df1\u6c55\u8def\u576a\u5c71\u6bb5337\u53f7", "lng": 114.352419, "lat": 22.711531}	{"id": "B02F37T4X9", "name": "\u4e2d\u56fd\u77f3\u5316\u677e\u5b50\u5751\u52a0\u6cb9\u7ad9", "type": "\u6c7d\u8f66\u670d\u52a1;\u52a0\u6cb9\u7ad9;\u4e2d\u56fd\u77f3\u5316", "address": "\u6df1\u6c55\u8def\u576a\u5c71\u6bb5337\u53f7", "lng": 114.352419, "lat": 22.711531}
{"id": "B02F38JKGI", "name": "\u9526\u7ee3\u52a0\u6cb9\u7ad9(\u9526\u7a0b\u8def)", "type": "\u6c7d\u8f66\u670d\u52a1;\u52a0\u6cb9\u7ad9;\u52a0\u6cb9\u7ad9", "address": "\u9526\u7a0b\u8def", "lng": 113.784989, "lat": 22.727748}	{"id": "B02F38JKGI", "name": "\u9526\u7ee3\u52a0\u6cb9\u7ad9(\u9526\u7a0b\u8def)", "type": "\u6c7d\u8f66\u670d\u52a1;\u52a0\u6cb9\u7ad9;\u52a0\u6cb9\u7ad9", "address": "\u9526\u7a0b\u8def", "lng": 113.784989, "lat": 22.727748}
{"id": "B02F37TNVV", "name": "\u8fdc\u671b\u4e8c\u624b\u8f66\u57ce", "type": "\u6c7d\u8f66\u670d\u52a1;\u4e8c\u624b\u8f66\u4ea4\u6613;\u4e8c\u624b\u8f66\u4ea4\u6613", "address": "\u7b0b\u5c97\u4e1c\u8def\u5609\u5b9d\u7530\u82b1\u56ed2008\u53f7", "lng": 114.109902, "lat": 22.557116}	{"id": "B02F37TNVV", "name": "\u8fdc\u671b\u4e8c\u624b\u8f66\u57ce", "type": "\u6c7d\u8f66\u670d\u52a1;\u4e8c\u624b\u8f66\u4ea4\u6613;\u4e8c\u624b\u8f66\u4ea4\u6613", "address": "\u7b0b\u5c97\u4e1c\u8def\u5609\u5b9d\u7530\u82b1\u56ed2008\u53f7", "lng": 114.109902, "lat": 22.557116}
{"id": "B02F37U4WE", "name": "\u4e2d\u77f3\u6cb9\u78a7\u8f9f\u677e\u5c97\u52a0\u6cb9\u7ad9", "type": "\u6c7d\u8f66\u670d\u52a1;\u52a0\u6cb9\u7ad9;\u4e2d\u77f3\u6cb9\u78a7\u8f9f", "address": "\u677e\u5c97\u9547\u6eaa\u5934\u6751", "lng": 113.839261, "lat": 22.780212}
{"id": "B02F302431", "name": "\u4e2d\u56fd\u77f3\u6cb9\u9e4f\u6b63\u5174\u5357\u56ed\u52a0\u6cb9\u7ad9", "type": "\u6c7d\u8f66\u670d\u52a1;\u52a0\u6cb9\u7ad9;\u4e2d\u56fd\u77f3\u6cb9", "address": "\u5357\u65b0\u8def1040\u53f7", "lng": 113.917018, "lat": 22.516162}	{"id": "B02F302431", "name": "\u4e2d\u56fd\u77f3\u6cb9\u9e4f\u6b63\u5174\u5357\u56ed\u52a0\u6cb9\u7ad9", "type": "\u6c7d\u8f66\u670d\u52a1;\u52a0\u6cb9\u7ad9;\u4e2d\u56fd\u77f3\u6cb9", "address": "\u5357\u65b0\u8def1040\u53f7", "lng": 113.917018, "lat": 22.516162}
{"id": "B02F37VBD6", "name": "\u4e2d\u56fd\u77f3\u5316\u52a0\u6cb9\u7ad9(\u5efa\u8bbe\u4e2d)", "type": "\u6c7d\u8f66\u670d\u52a1;\u52a0\u6cb9\u7ad9;\u4e2d\u56fd\u77f3\u5316", "address": "\u6cbf\u6cb3\u5357\u8def3071\u53f7", "lng": 114.138896, "lat": 22.54423}
{"id": "B02F305LQY", "name": "\u4e2d\u56fd\u77f3\u5316\u96ea\u7af9\u5f84\u52a0\u6cb9\u7ad9(\u5409\u534e\u8def)(\u6682\u505c\u8425\u4e1a)", "type": "\u6c7d\u8f66\u670d\u52a1;\u52a0\u6cb9\u7ad9;\u4e2d\u56fd\u77f3\u5316", "address": "\u5409\u534e\u8def403\u53f7", "lng": 114.084387, "lat": 22.640426}	{"id": "B02F305LQY", "name": "\u4e2d\u56fd\u77f3\u5316\u96ea\u7af9\u5f84\u52a0\u6cb9\u7ad9(\u5409\u534e\u8def)(\u6682\u505c\u8425\u4e1a)", "type": "\u6c7d\u8f66\u670d\u52a1;\u52a0\u6cb9\u7ad9;\u4e2d\u56fd\u77f3\u5316", "address": "\u5409\u534e\u8def403\u53f7", "lng": 114.084387, "lat": 22.640426}
{"id": "B02F37WK93", "name": "\u9093\u7984\u666e\u8f6e\u80ce(\u7f57\u82b3\u8def)", "type": "\u6c7d\u8f66\u670d\u52a1;\u6c7d\u8f66\u914d\u4ef6\u9500\u552e;\u6c7d\u8f66\u914d\u4ef6\u9500\u552e", "address": "\u7f57\u82b3\u8def83\u53f7\u4e00\u51b6\u82b1\u56ed\u5bf9\u9762", "lng": 114.148588, "lat": 22.551148}	{"id": "1827611641432928501", "name": "\u8ca1\u767c\u6f6e\u6c55\u725b\u5473\u9986", "type": "\u7f8e\u98df:\u4e2d\u9910\u5385:\u7ca4\u83dc", "address": "\u7f57\u82b3\u8def190-1", "lng": 114.148926, "lat": 22.551624, "distance": 63.3}
{"id": "B02F37T4XD", "name": "\u4e2d\u56fd\u77f3\u5316\u52a0\u6cb9\u7ad9", "type": "\u6c7d\u8f66\u670d\u52a1;\u52a0\u6cb9\u7ad9;\u4e2d\u56fd\u77f3\u5316", "address": "\u6df1\u6c55\u8def292", "lng": 114.298117, "lat": 22.719974}	{"id": "B02F37T4XD", "name": "\u4e2d\u56fd\u77f3\u5316\u52a0\u6cb9\u7ad9", "type": "\u6c7d\u8f66\u670d\u52a1;\u52a0\u6cb9\u7ad9;\u4e2d\u56fd\u77f3\u5316", "address": "\u6df1\u6c55\u8def292", "lng": 114.298117, "lat": 22.719974}
{"id": "B02F37VK9J", "name": "\u4e2d\u77f3\u6cb9\u78a7\u8f9f\u5317\u73af\u52a0\u6cb9\u7ad9", "type": "\u6c7d\u8f66\u670d\u52a1;\u52a0\u6cb9\u7ad9;\u4e2d\u77f3\u6cb9\u78a7\u8f9f", "address": "\u5317\u73af\u5927\u90538208\u53f7", "lng": 113.963674, "lat": 22.5544}	{"id": "11990730690136537610", "name": "\u5927\u6c99\u6cb3\u516c\u56ed\u516c\u4ea4\u7ad9", "type": "\u57fa\u7840\u8bbe\u65bd:\u4ea4\u901a\u8bbe\u65bd:\u516c\u4ea4\u8f66\u7ad9", "address": "", "lng": 113.962273, "lat": 22.553068, "distance": 73.8}
{"id": "B0FFH17U06", "name": "\u4e2d\u77f3\u6cb9\u78a7\u8f9f\u65b0\u52b2\u6e90\u52a0\u6cb9\u7ad9", "type": "\u6c7d\u8f66\u670d\u52a1;\u52a0\u6cb9\u7ad9;\u4e2d\u77f3\u6cb9\u78a7\u8f9f", "address": "\u89c2\u6f9c\u9547\u89c2\u6f9c\u5927\u9053104\u53f7", "lng": 114.040814, "lat": 22.694559}
{"id": "B02F3066TT", "name": "\u4e2d\u56fd\u77f3\u5316\u5f69\u7530\u52a0\u6cb9\u7ad9", "type": "\u6c7d\u8f66\u670d\u52a1;\u52a0\u6cb9\u7ad9;\u52a0\u6cb9\u7ad9", "address": "\u5f69\u7530\u5317\u8def7026\u53f7", "lng": 114.066809, "lat": 22.57072}	{"id": "11990426786909500940", "name": "\u798f\u7530\u515a\u6821\u2460\u516c\u4ea4\u7ad9", "type": "\u57fa\u7840\u8bbe\u65bd:\u4ea4\u901a\u8bbe\u65bd:\u516c\u4ea4\u8f66\u7ad9", "address": "", "lng": 114.06617, "lat": 22.571941, "distance": 74.6}
{"id": "B0FFFHC9WA", "name": "\u795e\u5dde\u79df\u8f66(\u6df1\u5733\u5317\u7ad9\u670d\u52a1\u70b9)", "type": "\u6c7d\u8f66\u670d\u52a1;\u6c7d\u8f66\u79df\u8d41;\u6c7d\u8f66\u79df\u8d41", "address": "\u7559\u4ed9\u5927\u905334\u53f7\u5f69\u60a6\u9152\u5e971\u5c42\u5927\u5802", "lng": 114.032, "lat": 22.614789}
{"id": "B02F37T4W8", "name": "\u4e2d\u56fd\u77f3\u5316\u576a\u5730\u52a0\u6cb9\u7ad9(\u5409\u7965\u4e00\u8def)", "type": "\u6c7d\u8f66\u670d\u52a1;\u52a0\u6cb9\u7ad9;\u4e2d\u56fd\u77f3\u5316", "address": "\u6df1\u60e0\u8def(\u576a\u5730\u6bb5)4", "lng": 114.286225, "lat": 22.752965}	{"id": "B02F37T4W8", "name": "\u4e2d\u56fd\u77f3\u5316\u576a\u5730\u52a0\u6cb9\u7ad9(\u5409\u7965\u4e00\u8def)", "type": "\u6c7d\u8f66\u670d\u52a1;\u52a0\u6cb9\u7ad9;\u4e2d\u56fd\u77f3\u5316", "address": "\u6df1\u60e0\u8def(\u576a\u5730\u6bb5)4", "lng": 114.286225, "lat": 22.752965}
{"id": "B02F38JOV0", "name": "\u4e2d\u56fd\u77f3\u5316\u5764\u8fbe\u670d\u52a1\u533a\u52a0\u6cb9\u7ad9", "type": "\u6c7d\u8f66\u670d\u52a1;\u52a0\u6cb9\u7ad9;\u4e2d\u56fd\u77f3\u5316", "address": "G25\u957f\u6df1\u9ad8\u901f\u9644\u8fd1", "lng": 114.191788, "lat": 22.61078}	{"id": "4027891385607751536", "name": "\u5764\u8fbe\u670d\u52a1\u533a", "type": "\u57fa\u7840\u8bbe\u65bd:\u9053\u8def\u9644\u5c5e:\u670d\u52a1\u533a", "address": "", "lng": 114.191551, "lat": 22.610741, "distance": 0}
{"id": "B02F3002ED", "name": "\u7269\u8d44\u6e05\u6c34\u6cb3\u52a0\u6cb9\u7ad9", "type": "\u6c7d\u8f66\u670d\u52a1;\u52a0\u6cb9\u7ad9;\u52a0\u6cb9\u7ad9", "address": "\u7ea2\u5c97\u8def1086\u53f7", "lng": 114.10636, "lat": 22.578336}	{"id": "B02F3002ED", "name": "\u7269\u8d44\u6e05\u6c34\u6cb3\u52a0\u6cb9\u7ad9", "type": "\u6c7d\u8f66\u670d\u52a1;\u52a0\u6cb9\u7ad9;\u52a0\u6cb9\u7ad9", "address": "\u7ea2\u5c97\u8def1086\u53f7", "lng": 114.10636, "lat": 22.578336}
{"id": "B0FFFTIEAR", "name": "\u4e2d\u56fd\u77f3\u5316\u6c99\u6cb3\u897f\u52a0\u6cb9\u52a0\u6c14\u7ad9", "type": "\u6c7d\u8f66\u670d\u52a1;\u5176\u5b83\u80fd\u6e90\u7ad9;\u5176\u5b83\u80fd\u6e90\u7ad9", "address": "\u6c99\u6cb3\u897f\u8def3019\u53f7", "lng": 113.955432, "lat": 22.565638}	{"id": "B0FFFTIEAR", "name": "\u4e2d\u56fd\u77f3\u5316\u6c99\u6cb3\u897f\u52a0\u6cb9\u52a0\u6c14\u7ad9", "type": "\u6c7d\u8f66\u670d\u52a1;\u5176\u5b83\u80fd\u6e90\u7ad9;\u5176\u5b83\u80fd\u6e90\u7ad9", "address": "\u6c99\u6cb3\u897f\u8def3019\u53f7", "lng": 113.955432, "lat": 22.565638}
{"id": "B02F38IQWO", "name": "\u4e2d\u56fd\u77f3\u6cb9\u6e2f\u6d32\u52a0\u6cb9\u7ad9", "type": "\u6c7d\u8f66\u670d\u52a1;\u52a0\u6cb9\u7ad9;\u4e2d\u56fd\u77f3\u6cb9", "address": "\u5b9d\u6e90\u8def\u4e0e\u822a\u57ce\u5927\u9053\u4ea4\u6c47\u5904(\u4e2d\u9526\u5efa\u6750\u5e02\u573ab\u533a\u5bf9\u9762)", "lng": 113.834972, "lat": 22.59881}	{"id": "B02F38IQWO", "name": "\u4e2d\u56fd\u77f3\u6cb9\u6e2f\u6d32\u52a0\u6cb9\u7ad9", "type": "\u6c7d\u8f66\u670d\u52a1;\u52a0\u6cb9\u7ad9;\u4e2d\u56fd\u77f3\u6cb9", "address": "\u5b9d\u6e90\u8def\u4e0e\u822a\u57ce\u5927\u9053\u4ea4\u6c47\u5904(\u4e2d\u9526\u5efa\u6750\u5e02\u573ab\u533a\u5bf9\u9762)", "lng": 113.834972, "lat": 22.59881}
{"id": "B0FFHOFIEM", "name": "\u7ca4\u7f8e\u7279\u77f3\u6cb9(\u6682\u505c\u8425\u4e1a)", "type": "\u6c7d\u8f66\u670d\u52a1;\u52a0\u6cb9\u7ad9;\u52a0\u6cb9\u7ad9", "address": "\u524d\u6e7e\u4e8c\u8def\u4e0e\u6021\u6d77\u5927\u9053\u4ea4\u53c9\u53e3\u4e1c\u5357100\u7c73", "lng": 113.901209, "lat": 22.513586}
{"id": "B02F37UAG0", "name": "\u4e2d\u56fd\u77f3\u5316\u52a0\u6cb9\u7ad9(\u79d1\u82d1\u5357\u8def)", "type": "\u6c7d\u8f66\u670d\u52a1;\u52a0\u6cb9\u7ad9;\u4e2d\u56fd\u77f3\u5316", "address": "\u79d1\u82d1\u5357\u8def\u4e0e\u4e1c\u6ee8\u8def\u4ea4\u53c9\u5904\u5357\u884c\u8def\u4e1c\u4fa7", "lng": 113.94477, "lat": 22.50154}	{"id": "B02F37UAG0", "name": "\u4e2d\u56fd\u77f3\u5316\u52a0\u6cb9\u7ad9(\u79d1\u82d1\u5357\u8def)", "type": "\u6c7d\u8f66\u670d\u52a1;\u52a0\u6cb9\u7ad9;\u4e2d\u56fd\u77f3\u5316", "address": "\u79d1\u82d1\u5357\u8def\u4e0e\u4e1c\u6ee8\u8def\u4ea4\u53c9\u5904\u5357\u884c\u8def\u4e1c\u4fa7", "lng": 113.94477, "lat": 22.50154}
{"id": "B02F37VCN8", "name": "\u7f8e\u8054\u52a0\u6cb9\u7ad9", "type": "\u6c7d\u8f66\u670d\u52a1;\u52a0\u6cb9\u7ad9;\u52a0\u6cb9\u7ad9", "address": "\u6587\u9526\u5357\u8def1003\u53f7", "lng": 114.130552, "lat": 22.540245}	{"id": "7318877547466293838", "name": "\u4e2d\u56fd\u77f3\u6cb9\u6587\u9526\u5357\u8def\u52a0\u6cb9\u7ad9", "type": "\u6c7d\u8f66:\u52a0\u6cb9\u7ad9:\u4e2d\u77f3\u6cb9", "address": "\u6587\u9526\u5357\u8def1003\u53f7", "lng": 114.130592, "lat": 22.540171, "distance": 0}
{"id": "B02F37T380", "name": "\u4e2d\u56fd\u77f3\u5316(\u4fa8\u57ce\u52a0\u6cb9\u7ad9)", "type": "\u6c7d\u8f66\u670d\u52a1;\u52a0\u6cb9\u7ad9;\u52a0\u6cb9\u7ad9", "address": "\u6df1\u5357\u5927\u90539006\u53f7", "lng": 113.994191, "lat": 22.533795}	{"id": "10389555214620617338", "name": "\u9526\u7ee3\u82b1\u56ed", "type": "\u623f\u4ea7\u5c0f\u533a:\u4f4f\u5b85\u533a:\u4f4f\u5b85\u5c0f\u533a", "address": "\u4fa8\u57ce\u4e1c\u8def\u4e0e\u6df1\u5357\u5927\u9053\u4ea4\u6c47\u897f\u5317", "lng": 113.996101, "lat": 22.533979, "distance": 0}
{"id": "B02F37T4WN", "name": "\u6df1\u5733\u5e02\u6cb9\u677e\u52a0\u6cb9\u7ad9\u6709\u9650\u516c\u53f8(\u6cb9\u677e)", "type": "\u6c7d\u8f66\u670d\u52a1;\u52a0\u6cb9\u7ad9;\u52a0\u6cb9\u7ad9", "address": "\u9f99\u534e\u8857\u9053\u9f99\u89c2\u8def\u9f99\u534e\u6c7d\u8f66\u7ad9\u65c1", "lng": 114.02986, "lat": 22.669382}	{"id": "1320001618532555649", "name": "\u6d6a\u6f2b\u516c\u5bd3(\u9f99\u534e\u6c7d\u8f66\u7ad9\u5e97)", "type": "\u9152\u5e97\u5bbe\u9986:\u516c\u5bd3\u5f0f\u9152\u5e97", "address": "\u9f99\u89c2\u8def\u4e0e\u6e05\u6cc9\u8def\u4ea4\u6c47\u5904\u7ca4\u901a\u4e8c\u53f7\u697c", "lng": 114.028961, "lat": 22.669621, "distance": 96.2}
{"id": "B02F37T4YG", "name": "\u4e2d\u56fd\u77f3\u5316\u9e4f\u5409\u6e90\u52a0\u6cb9\u7ad9(\u7fe0\u5c71\u8def)", "type": "\u6c7d\u8f66\u670d\u52a1;\u52a0\u6cb9\u7ad9;\u4e2d\u56fd\u77f3\u5316", "address": "\u5e03\u5409\u8def1022\u53f7(\u82b1\u534a\u91cc\u522b\u9986\u897f)", "lng": 114.119815, "lat": 22.579968}
{"id": "B0FFGLJY1Y", "name": "\u7279\u53d1\u6d17\u8f66\u7f8e\u5bb9", "type": "\u6c7d\u8f66\u670d\u52a1;\u6c7d\u8f66\u517b\u62a4/\u88c5\u9970;\u6c7d\u8f66\u517b\u62a4", "address": "\u743c\u5b87\u8def5\u53f7", "lng": 113.948407, "lat": 22.550717}
{"id": "B0FFFWQ2KK", "name": "\u8d3a\u6d69\u6cb9\u7ad9", "type": "\u6c7d\u8f66\u670d\u52a1;\u52a0\u6cb9\u7ad9;\u4e2d\u56fd\u77f3\u5316", "address": "\u5e03\u5409\u9547\u5357\u6e7e\u8857\u9053\u4e39\u5e73\u516c\u8def536\u53f7", "lng": 114.156798, "lat": 22.631798}	{"id": "B0FFFWQ2KK", "name": "\u8d3a\u6d69\u6cb9\u7ad9", "type": "\u6c7d\u8f66\u670d\u52a1;\u52a0\u6cb9\u7ad9;\u4e2d\u56fd\u77f3\u5316", "address": "\u5e03\u5409\u9547\u5357\u6e7e\u8857\u9053\u4e39\u5e73\u516c\u8def536\u53f7", "lng": 114.156798, "lat": 22.631798}
{"id": "B02F38JG8G", "name": "\u9ad8\u79d1\u5174\u6c7d\u8f66\u7ef4\u4fee\u7f8e\u5bb9\u4e2d\u5fc3", "type": "\u6c7d\u8f66\u7ef4\u4fee;\u6c7d\u8f66\u7ef4\u4fee;\u6c7d\u8f66\u7ef4\u4fee|\u6c7d\u8f66\u670d\u52a1;\u6c7d\u8f66\u670d\u52a1\u76f8\u5173;\u6c7d\u8f66\u670d\u52a1\u76f8\u5173", "address": "\u7ca4\u6d77\u8857\u9053\u79d1\u6280\u4e2d\u4e8c\u8def5\u53f7\u9ad8\u65b0\u804c\u5de5\u9910\u5385\u7efc\u5408\u697c2-3\u53f7\u5546\u94fa", "lng": 113.93794, "lat": 22.540731}
{"id": "B02F37T4WC", "name": "\u51a0\u5fb7\u77f3\u6cb9\u576a\u5730\u52a0\u6cb9\u7ad9", "type": "\u6c7d\u8f66\u670d\u52a1;\u52a0\u6cb9\u7ad9;\u52a0\u6cb9\u7ad9", "address": "\u6df1\u60e0\u8def555\u53f7", "lng": 114.313826, "lat": 22.778363}	{"id": "B02F37T4WC", "name": "\u51a0\u5fb7\u77f3\u6cb9\u576a\u5730\u52a0\u6cb9\u7ad9", "type": "\u6c7d\u8f66\u670d\u52a1;\u52a0\u6cb9\u7ad9;\u52a0\u6cb9\u7ad9", "address": "\u6df1\u60e0\u8def555\u53f7", "lng": 114.313826, "lat": 22.778363}
{"id": "B02F37VTWD", "name": "\u4efb\u6211\u884c\u79df\u8f66(\u6cbf\u6cb3\u4e1c\u8def\u5e97)", "type": "\u6c7d\u8f66\u670d\u52a1;\u6c7d\u8f66\u79df\u8d41;\u6c7d\u8f66\u79df\u8d41", "address": "\u6cbf\u6cb3\u4e1c\u8def13-1", "lng": 114.113437, "lat": 22.540281}
{"id": "B02F38T4AO", "name": "\u8fde\u53d1\u65b0\u6e2f\u6c7d\u8f66\u57ce", "type": "\u6c7d\u8f66\u670d\u52a1;\u6c7d\u8f66\u914d\u4ef6\u9500\u552e;\u6c7d\u8f66\u914d\u4ef6\u9500\u552e", "address": "\u5357\u6d77\u5927\u9053\u4e0e\u540c\u4e50\u7acb\u4ea4\u4ea4\u53c9\u53e3\u897f200\u7c73", "lng": 113.932293, "lat": 22.560872}	{"id": "2246107435690005019", "name": "\u65b0\u6e2f\u91cd\u6c7d\u6c7d\u8f66\u7ef4\u4fee\u4e2d\u5fc3", "type": "\u6c7d\u8f66:\u6c7d\u8f66\u9500\u552e", "address": "\u5357\u6d77\u5927\u90533669\u53f7", "lng": 113.933281, "lat": 22.560881, "distance": 0}
{"id": "B02F38IO6I", "name": "\u4e00\u55e8(\u5357\u5c71\u5e97)", "type": "\u6c7d\u8f66\u670d\u52a1;\u6c7d\u8f66\u79df\u8d41;\u6c7d\u8f66\u79df\u8d41", "address": "\u5357\u5c71\u5927\u9053\u6842\u5e99\u8def\u53e31142\u53f7", "lng": 113.923611, "lat": 22.523175}	{"id": "1628209159926423414", "name": "\u6df1\u5733\u5c45\u4f17\u88c5\u9970(\u5357\u5c71\u5206\u516c\u53f8)", "type": "\u516c\u53f8\u4f01\u4e1a:\u516c\u53f8\u4f01\u4e1a", "address": "\u5357\u5c71\u5927\u90531175\u53f7\u65b0\u7eff\u5c9b\u5927\u53a67\u697c", "lng": 113.922821, "lat": 22.52354, "distance": 91.2}
{"id": "B02F37VEFK", "name": "\u4e2d\u56fd\u77f3\u5316\u6c99\u76d0\u52a0\u6cb9\u7ad9(\u9ec4\u91d1\u73e0\u5b9d\u5927\u53a6\u897f)", "type": "\u6c7d\u8f66\u670d\u52a1;\u52a0\u6cb9\u7ad9;\u4e2d\u56fd\u77f3\u5316", "address": "\u6df1\u76d0\u8def2034\u53f7", "lng": 114.246769, "lat": 22.563007}	{"id": "B02F37VEFK", "name": "\u4e2d\u56fd\u77f3\u5316\u6c99\u76d0\u52a0\u6cb9\u7ad9(\u9ec4\u91d1\u73e0\u5b9d\u5927\u53a6\u897f)", "type": "\u6c7d\u8f66\u670d\u52a1;\u52a0\u6cb9\u7ad9;\u4e2d\u56fd\u77f3\u5316", "address": "\u6df1\u76d0\u8def2034\u53f7", "lng": 114.246769, "lat": 22.563007}
{"id": "B0FFF4HDFU", "name": "\u4e2d\u56fd\u77f3\u6cb9\u52a0\u6cb9\u7ad9(\u76d0\u9f99\u5927\u9053\u8f85\u8def)", "type": "\u6c7d\u8f66\u670d\u52a1;\u52a0\u6cb9\u7ad9;\u4e2d\u56fd\u77f3\u6cb9", "address": "\u76d0\u9f99\u5927\u9053(\u56de\u9f99\u57d4\u516c\u56ed\u5317\u4fa7)", "lng": 114.241792, "lat": 22.737467}	{"id": "B0FFF4HDFU", "name": "\u4e2d\u56fd\u77f3\u6cb9\u52a0\u6cb9\u7ad9(\u76d0\u9f99\u5927\u9053\u8f85\u8def)", "type": "\u6c7d\u8f66\u670d\u52a1;\u52a0\u6cb9\u7ad9;\u4e2d\u56fd\u77f3\u6cb9", "address": "\u76d0\u9f99\u5927\u9053(\u56de\u9f99\u57d4\u516c\u56ed\u5317\u4fa7)", "lng": 114.241792, "lat": 22.737467}
{"id": "B02F37WGKE", "name": "\u6843\u6e90\u4e8c\u624b\u8f663\u5c55\u573a", "type": "\u6c7d\u8f66\u670d\u52a1;\u4e8c\u624b\u8f66\u4ea4\u6613;\u4e8c\u624b\u8f66\u4ea4\u6613", "address": "\u9f99\u73e0\u4e09\u8def32\u9644\u8fd1", "lng": 113.964933, "lat": 22.565568}	{"id": "5574758489507454562", "name": "\u6df1\u5733\u5e02\u7acb\u5fb7\u901a\u8baf\u5668\u6750\u6709\u9650\u516c\u53f8", "type": "\u516c\u53f8\u4f01\u4e1a:\u516c\u53f8\u4f01\u4e1a", "address": "\u9f99\u73e0\u4e09\u8def\u5149\u524d\u5de5\u4e1a\u533a15\u680b", "lng": 113.964668, "lat": 22.5662, "distance": 75.5}
{"id": "B02F37UBMM", "name": "\u4e2d\u56fd\u77f3\u5316\u798f\u7530\u52a0\u6cb9\u7ad9", "type": "\u6c7d\u8f66\u670d\u52a1;\u52a0\u6cb9\u7ad9;\u4e2d\u56fd\u77f3\u5316", "address": "\u6df1\u5357\u4e2d\u8def3023\u53f7", "lng": 114.082111, "lat": 22.539829}
{"id": "B02F37T4YD", "name": "\u4e2d\u56fd\u77f3\u5316\u52a0\u6cb9\u7ad9(\u8fce\u5bbe\u8def)", "type": "\u6c7d\u8f66\u670d\u52a1;\u52a0\u6cb9\u7ad9;\u4e2d\u56fd\u77f3\u5316", "address": "\u4e2d\u5c71\u8def\u4e0e\u8fce\u5bbe\u8def\u4ea4\u53c9\u53e3\u5411\u5411\u5317\u884c\u9a76\u8def\u897f\u5357\u65b9\u5411", "lng": 114.471842, "lat": 22.595946}	{"id": "B02F37T4YD", "name": "\u4e2d\u56fd\u77f3\u5316\u52a0\u6cb9\u7ad9(\u8fce\u5bbe\u8def)", "type": "\u6c7d\u8f66\u670d\u52a1;\u52a0\u6cb9\u7ad9;\u4e2d\u56fd\u77f3\u5316", "address": "\u4e2d\u5c71\u8def\u4e0e\u8fce\u5bbe\u8def\u4ea4\u53c9\u53e3\u5411\u5411\u5317\u884c\u9a76\u8def\u897f\u5357\u65b9\u5411", "lng": 114.471842, "lat": 22.595946}
{"id": "B02F37VHYF", "name": "\u9ad8\u9014\u80fd\u6e90\u6a2a\u5c97\u52a0\u6cb9\u7ad9", "type": "\u6c7d\u8f66\u670d\u52a1;\u52a0\u6cb9\u7ad9;\u52a0\u6cb9\u7ad9", "address": "\u5e7f\u6df1\u9ad8\u901f\u9f99\u5c97\u5927\u90538180\u53f7", "lng": 114.227942, "lat": 22.682094}	{"id": "B02F37VHYF", "name": "\u9ad8\u9014\u80fd\u6e90\u6a2a\u5c97\u52a0\u6cb9\u7ad9", "type": "\u6c7d\u8f66\u670d\u52a1;\u52a0\u6cb9\u7ad9;\u52a0\u6cb9\u7ad9", "address": "\u5e7f\u6df1\u9ad8\u901f\u9f99\u5c97\u5927\u90538180\u53f7", "lng": 114.227942, "lat": 22.682094}
{"id": "B0FFFQ0I01", "name": "\u6d77\u5b81\u52a0\u6cb9\u7ad9", "type": "\u6c7d\u8f66\u670d\u52a1;\u52a0\u6cb9\u7ad9;\u52a0\u6cb9\u7ad9", "address": "\u6df1\u6c55\u8def640\u53f7", "lng": 114.319738, "lat": 22.704045}	{"id": "4902700470769654866", "name": "\u53e4\u6d77\u57f9\u80b2\u6587\u5316\u4f20\u5a92", "type": "\u516c\u53f8\u4f01\u4e1a:\u516c\u53f8\u4f01\u4e1a", "address": "\u6df1\u6c55\u8def638\u53f7\u529e\u516c\u697c1\u5c42", "lng": 114.319382, "lat": 22.704092, "distance": 37.2}
{"id": "B02F37VBJI", "name": "\u4e2d\u56fd\u77f3\u5316\u5b9d\u798f\u5174\u7965\u52a0\u6cb9\u7ad9", "type": "\u6c7d\u8f66\u670d\u52a1;\u52a0\u6cb9\u7ad9;\u4e2d\u56fd\u77f3\u5316", "address": "\u65b0\u7530\u5927\u905396\u53f7", "lng": 113.831946, "lat": 22.687672}	{"id": "B02F37VBJI", "name": "\u4e2d\u56fd\u77f3\u5316\u5b9d\u798f\u5174\u7965\u52a0\u6cb9\u7ad9", "type": "\u6c7d\u8f66\u670d\u52a1;\u52a0\u6cb9\u7ad9;\u4e2d\u56fd\u77f3\u5316", "address": "\u65b0\u7530\u5927\u905396\u53f7", "lng": 113.831946, "lat": 22.687672}
{"id": "B02F38JHJ6", "name": "\u65b0\u6865\u6c7d\u8f66\u914d\u4ef6\u6709\u9650\u516c\u53f8", "type": "\u6c7d\u8f66\u670d\u52a1;\u6c7d\u8f66\u670d\u52a1\u76f8\u5173;\u6c7d\u8f66\u670d\u52a1\u76f8\u5173", "address": "\u6c99\u4e95\u9547\u65b0\u6865\u6751", "lng": 113.846826, "lat": 22.733586}	{"id": "16633430688771063579", "name": "\u65b0\u6865\u7acb\u4ea4", "type": "\u57fa\u7840\u8bbe\u65bd:\u9053\u8def\u9644\u5c5e:\u6865", "address": "", "lng": 113.850922, "lat": 22.733332, "distance": 39.2}
{"id": "B02F38MSJ3", "name": "\u4e2d\u77f3\u6cb9\u78a7\u8f9f\u60e0\u5dde\u6d77\u66d9\u52a0\u6cb9\u7ad9", "type": "\u6c7d\u8f66\u670d\u52a1;\u52a0\u6cb9\u7ad9;\u4e2d\u77f3\u6cb9\u78a7\u8f9f", "address": "\u65b0\u589f\u9547\u5858\u5413", "lng": 114.332323, "lat": 22.8084}
{"id": "B02F38MSK4", "name": "\u4e2d\u56fd\u77f3\u6cb9\u6c99\u7530\u52a0\u6cb9\u7ad9", "type": "\u6c7d\u8f66\u670d\u52a1;\u52a0\u6cb9\u7ad9;\u4e2d\u56fd\u77f3\u6cb9", "address": "\u5751\u6893\u8857\u9053\u576a\u5c71\u5927\u90536414\u53f7", "lng": 114.416111, "lat": 22.761156}	{"id": "B02F38MSK4", "name": "\u4e2d\u56fd\u77f3\u6cb9\u6c99\u7530\u52a0\u6cb9\u7ad9", "type": "\u6c7d\u8f66\u670d\u52a1;\u52a0\u6cb9\u7ad9;\u4e2d\u56fd\u77f3\u6cb9", "address": "\u5751\u6893\u8857\u9053\u576a\u5c71\u5927\u90536414\u53f7", "lng": 114.416111, "lat": 22.761156}
{"id": "B02F37T4WI", "name": "\u4e2d\u56fd\u77f3\u5316\u52a0\u6cb9\u7ad9(\u9ad8\u5c14\u592b\u5927\u9053)", "type": "\u6c7d\u8f66\u670d\u52a1;\u52a0\u6cb9\u7ad9;\u4e2d\u56fd\u77f3\u5316", "address": "\u9ad8\u5c14\u592b\u5927\u9053\u4e1c\u677e\u5143\u6751\u53e3", "lng": 114.067203, "lat": 22.720179}	{"id": "B02F37T4WI", "name": "\u4e2d\u56fd\u77f3\u5316\u52a0\u6cb9\u7ad9(\u9ad8\u5c14\u592b\u5927\u9053)", "type": "\u6c7d\u8f66\u670d\u52a1;\u52a0\u6cb9\u7ad9;\u4e2d\u56fd\u77f3\u5316", "address": "\u9ad8\u5c14\u592b\u5927\u9053\u4e1c\u677e\u5143\u6751\u53e3", "lng": 114.067203, "lat": 22.720179}
{"id": "B02F37VHKZ", "name": "\u4e2d\u56fd\u77f3\u6cb9\u65b0\u7530\u52a0\u6cb9\u7ad9", "type": "\u6c7d\u8f66\u670d\u52a1;\u52a0\u6cb9\u7ad9;\u4e2d\u56fd\u77f3\u6cb9", "address": "\u73af\u89c2\u5357\u8def80\u53f7", "lng": 114.087648, "lat": 22.694617}	{"id": "14254602087080228459", "name": "\u79d1\u53d1\u5de5\u4e1a\u56ed", "type": "\u623f\u4ea7\u5c0f\u533a:\u4ea7\u4e1a\u56ed\u533a", "address": "\u73af\u89c2\u5357\u8def80\u897f\u5357\u65b9\u5411110\u7c73", "lng": 114.086761, "lat": 22.69425, "distance": 0}
{"id": "B02F38Z98O", "name": "330\u673a\u573a\u5df4\u58eb", "type": "\u6c7d\u8f66\u670d\u52a1;\u6c7d\u8f66\u670d\u52a1\u76f8\u5173;\u6c7d\u8f66\u670d\u52a1\u76f8\u5173", "address": "\u534e\u8054\u5927\u53a6-\u6df1\u5733\u673a\u573a", "lng": 114.09398, "lat": 22.541374}	{"id": "1959498037158202051", "name": "\u6df1\u5733\u673a\u573a\u534e\u8054\u5019\u673a\u697c", "type": "\u57fa\u7840\u8bbe\u65bd:\u673a\u573a\u9644\u5c5e", "address": "", "lng": 114.094513, "lat": 22.540861, "distance": 79.2}
{"id": "B02F37T4W0", "name": "\u4e2d\u56fd\u77f3\u5316\u5357\u5b9d\u52a0\u6cb9\u7ad9", "type": "\u6c7d\u8f66\u670d\u52a1;\u52a0\u6cb9\u7ad9;\u4e2d\u56fd\u77f3\u5316", "address": "\u6df1\u5357\u5927\u905312052\u53f7\u6df1\u5357\u5927\u9053\u51fa\u53e3\u5904\u4e2d\u5c71\u516c\u56ed\u897f\u4fa7", "lng": 113.914624, "lat": 22.546313}	{"id": "B02F37T4W0", "name": "\u4e2d\u56fd\u77f3\u5316\u5357\u5b9d\u52a0\u6cb9\u7ad9", "type": "\u6c7d\u8f66\u670d\u52a1;\u52a0\u6cb9\u7ad9;\u4e2d\u56fd\u77f3\u5316", "address": "\u6df1\u5357\u5927\u905312052\u53f7\u6df1\u5357\u5927\u9053\u51fa\u53e3\u5904\u4e2d\u5c71\u516c\u56ed\u897f\u4fa7", "lng": 113.914624, "lat": 22.546313}
{"id": "B02F37VD61", "name": "\u6df1\u5733\u5e02\u65c5\u6e38\u6c7d\u8f66\u51fa\u79df\u516c\u53f8", "type": "\u6c7d\u8f66\u670d\u52a1;\u6c7d\u8f66\u79df\u8d41;\u6c7d\u8f66\u79df\u8d41", "address": "\u7f57\u82b3\u8def\u65b0\u5174\u675112\u53f71\u5c42", "lng": 114.149168, "lat": 22.551602}	{"id": "5321510043663348766", "name": "\u5473\u4e4b\u6e90\u6d77\u9c9c\u70e7\u70e4", "type": "\u7f8e\u98df:\u70e7\u70e4", "address": "\u7f57\u82b3\u8def160\u53f7", "lng": 114.148819, "lat": 22.550838, "distance": 92.3}
{"id": "B02F30A918", "name": "\u987a\u53d1\u6c7d\u914d(\u6c99\u6cb3\u897f\u8def\u5e97)", "type": "\u6c7d\u8f66\u670d\u52a1;\u6c7d\u8f66\u914d\u4ef6\u9500\u552e;\u6c7d\u8f66\u914d\u4ef6\u9500\u552e", "address": "\u897f\u4e3d\u9547\u5357\u652f\u8def1002-6\u53f7", "lng": 113.953622, "lat": 22.57309}
{"id": "B02F37WCS4", "name": "\u4e2d\u56fd\u77f3\u5316\u52a0\u6cb9\u7ad9(\u9f99\u73e0\u5927\u9053)", "type": "\u6c7d\u8f66\u670d\u52a1;\u52a0\u6cb9\u7ad9;\u4e2d\u56fd\u77f3\u5316", "address": "\u9f99\u73e0\u5927\u905376\u53f7", "lng": 113.972589, "lat": 22.565826}	{"id": "11990833332556817420", "name": "\u9f0e\u80dc\u5c71\u90bb\u516c\u4ea4\u7ad9", "type": "\u57fa\u7840\u8bbe\u65bd:\u4ea4\u901a\u8bbe\u65bd:\u516c\u4ea4\u8f66\u7ad9", "address": "", "lng": 113.972214, "lat": 22.565525, "distance": 47.9}
{"id": "B02F37VD7H", "name": "\u4e2d\u56fd\u77f3\u5316\u4e2d\u5357\u6df1\u957f\u52a0\u6cb9\u7ad9(\u7231\u56fd\u8def\u8f85\u8def)", "type": "\u6c7d\u8f66\u670d\u52a1;\u52a0\u6cb9\u7ad9;\u4e2d\u56fd\u77f3\u5316", "address": "\u7231\u56fd\u8def3064\u53f7(\u7231\u56fd\u8def\u8f85\u8def)", "lng": 114.143164, "lat": 22.5676}	{"id": "B02F37VD7H", "name": "\u4e2d\u56fd\u77f3\u5316\u4e2d\u5357\u6df1\u957f\u52a0\u6cb9\u7ad9(\u7231\u56fd\u8def\u8f85\u8def)", "type": "\u6c7d\u8f66\u670d\u52a1;\u52a0\u6cb9\u7ad9;\u4e2d\u56fd\u77f3\u5316", "address": "\u7231\u56fd\u8def3064\u53f7(\u7231\u56fd\u8def\u8f85\u8def)", "lng": 114.143164, "lat": 22.5676}
{"id": "B0FFHGIBRI", "name": "\u5145\u7535\u6709\u9053\u7af9\u5b50\u6797\u6c7d\u8f66\u5145\u7535\u7ad9", "type": "\u6c7d\u8f66\u670d\u52a1;\u5145\u7535\u7ad9;\u5145\u7535\u7ad9", "address": "\u7af9\u5b50\u6797\u56db\u8def\u4e0e\u7d2b\u7af9\u516d\u9053\u4ea4\u53c9\u53e3\u897f\u5357100\u7c73", "lng": 114.007514, "lat": 22.534264}	{"id": "14442054667027544458", "name": "\u6021\u666f\u9601", "type": "\u623f\u4ea7\u5c0f\u533a:\u4f4f\u5b85\u533a:\u4f4f\u5b85\u5c0f\u533a", "address": "\u7d2b\u7af9\u516d\u905364\u8d8a\u6d77\u5bb6\u56ed", "lng": 114.006744, "lat": 22.534782, "distance": 98}
{"id": "B02F38SVO6", "name": "\u8f6e\u56fa\u8f6e\u80ce\u5e97", "type": "\u6c7d\u8f66\u670d\u52a1;\u6c7d\u8f66\u914d\u4ef6\u9500\u552e;\u6c7d\u8f66\u914d\u4ef6\u9500\u552e", "address": "\u4e1c\u73af\u4e8c\u8def9\u53f7", "lng": 114.04948, "lat": 22.63403}	{"id": "13967232812661111687", "name": "\u548c\u9e4f\u82d1", "type": "\u623f\u4ea7\u5c0f\u533a:\u4f4f\u5b85\u533a:\u4f4f\u5b85\u5c0f\u533a", "address": "\u4e1c\u73af\u4e8c\u8def", "lng": 114.04866, "lat": 22.633621, "distance": 31.6}
{"id": "B02F3006FE", "name": "\u4e2d\u56fd\u77f3\u5316\u5317\u73af\u52a0\u6cb9\u7ad9", "type": "\u6c7d\u8f66\u670d\u52a1;\u52a0\u6cb9\u7ad9;\u4e2d\u56fd\u77f3\u5316", "address": "\u5317\u73af\u5927\u90534003\u53f7", "lng": 114.058545, "lat": 22.56142}
{"id": "B02F38U27Y", "name": "\u7c73\u5176\u6797\u8f6e\u80ce(\u9999\u6885\u8def\u5e97)", "type": "\u6c7d\u8f66\u670d\u52a1;\u6c7d\u8f66\u914d\u4ef6\u9500\u552e;\u6c7d\u8f66\u914d\u4ef6\u9500\u552e", "address": "\u9999\u6885\u8def", "lng": 114.040356, "lat": 22.543275}
{"id": "B0FFHF5OK4", "name": "\u4e2d\u77f3\u6cb9\u78a7\u8f9f\u65b0\u666f\u6cf0\u52a0\u6cb9\u7ad9", "type": "\u6c7d\u8f66\u670d\u52a1;\u52a0\u6cb9\u7ad9;\u4e2d\u77f3\u6cb9\u78a7\u8f9f", "address": "\u5e73\u6e56\u9547\u5e73\u9f99\u4e1c\u8def391\u53f7", "lng": 114.136146, "lat": 22.707798}	{"id": "B0FFHF5OK4", "name": "\u4e2d\u77f3\u6cb9\u78a7\u8f9f\u65b0\u666f\u6cf0\u52a0\u6cb9\u7ad9", "type": "\u6c7d\u8f66\u670d\u52a1;\u52a0\u6cb9\u7ad9;\u4e2d\u77f3\u6cb9\u78a7\u8f9f", "address": "\u5e73\u6e56\u9547\u5e73\u9f99\u4e1c\u8def391\u53f7", "lng": 114.136146, "lat": 22.707798}
{"id": "B02F3002D2", "name": "\u4e2d\u56fd\u77f3\u5316\u7530\u8d1d\u52a0\u6cb9\u7ad9(\u6587\u9526\u5317\u8def)", "type": "\u6c7d\u8f66\u670d\u52a1;\u52a0\u6cb9\u7ad9;\u4e2d\u56fd\u77f3\u5316", "address": "\u6587\u9526\u5317\u8def1044\u53f7", "lng": 114.12412, "lat": 22.560334}
{"id": "B0FFFFYNPP", "name": "\u4e2d\u56fd\u77f3\u5316\u4e2d\u6df1\u524d\u6d77\u52a0\u6cb9\u7ad9", "type": "\u6c7d\u8f66\u670d\u52a1;\u52a0\u6cb9\u7ad9;\u4e2d\u56fd\u77f3\u5316", "address": "\u5357\u5934\u5173\u53e3\u4e8c\u8def", "lng": 113.910995, "lat": 22.549762}	{"id": "B0FFFFYNPP", "name": "\u4e2d\u56fd\u77f3\u5316\u4e2d\u6df1\u524d\u6d77\u52a0\u6cb9\u7ad9", "type": "\u6c7d\u8f66\u670d\u52a1;\u52a0\u6cb9\u7ad9;\u4e2d\u56fd\u77f3\u5316", "address": "\u5357\u5934\u5173\u53e3\u4e8c\u8def", "lng": 113.910995, "lat": 22.549762}
{"id": "B02F302488", "name": "\u4e2d\u56fd\u77f3\u5316\u6d77\u9f99\u73e0\u52a0\u6cb9\u7ad9", "type": "\u6c7d\u8f66\u670d\u52a1;\u52a0\u6cb9\u7ad9;\u4e2d\u56fd\u77f3\u5316", "address": "\u6c99\u6cb3\u897f\u8def3285\u53f7", "lng": 113.953776, "lat": 22.578628}
{"id": "B0FFLHLHIQ", "name": "\u5b8f\u9526\u77f3\u6cb9\u5927\u6a2a\u5751\u52a0\u6cb9\u7ad9", "type": "\u6c7d\u8f66\u670d\u52a1;\u52a0\u6cb9\u7ad9;\u4e2d\u77f3\u6cb9\u78a7\u8f9f", "address": "\u7fe0\u5c71\u8def162\u53f7(\u7f57\u6e56\u56fd\u9632\u5927\u53a6\u9644\u8fd1)", "lng": 114.123759, "lat": 22.581297}	{"id": "B0FFLHLHIQ", "name": "\u5b8f\u9526\u77f3\u6cb9\u5927\u6a2a\u5751\u52a0\u6cb9\u7ad9", "type": "\u6c7d\u8f66\u670d\u52a1;\u52a0\u6cb9\u7ad9;\u4e2d\u77f3\u6cb9\u78a7\u8f9f", "address": "\u7fe0\u5c71\u8def162\u53f7(\u7f57\u6e56\u56fd\u9632\u5927\u53a6\u9644\u8fd1)", "lng": 114.123759, "lat": 22.581297}
{"id": "B02F30ABG2", "name": "\u897f\u4e3d\u4e00\u901a\u4e8c\u624b\u8f66\u4ea4\u6613\u4e2d\u5fc3\u7ba1\u7406\u5904", "type": "\u6c7d\u8f66\u670d\u52a1;\u4e8c\u624b\u8f66\u4ea4\u6613;\u4e8c\u624b\u8f66\u4ea4\u6613", "address": "\u9f99\u73e0\u4e09\u8def\u521b\u4e16\u7eaa\u5546\u52a1\u4e2d\u5fc33\u5c42", "lng": 113.964784, "lat": 22.566953}	{"id": "5593444547785350082", "name": "\u9f99\u7965\u82d1", "type": "\u623f\u4ea7\u5c0f\u533a:\u4f4f\u5b85\u533a:\u4f4f\u5b85\u5c0f\u533a", "address": "\u9f99\u73e0\u5927\u9053\u4e0e\u73e0\u5149\u8def\u4ea4\u6c47\u5904", "lng": 113.966324, "lat": 22.567917, "distance": 99.4}
{"id": "B02F37VML5", "name": "\u4e2d\u56fd\u77f3\u5316\u81f4\u96c5\u52a0\u6cb9\u7ad9", "type": "\u6c7d\u8f66\u670d\u52a1;\u52a0\u6cb9\u7ad9;\u4e2d\u56fd\u77f3\u5316", "address": "\u660e\u73e0\u5927\u905359\u53f7\u76d0\u7530\u4e09\u6751", "lng": 114.250567, "lat": 22.58771}	{"id": "9395579703064608485", "name": "\u76d0\u7530\u4e09\u6751", "type": "\u623f\u4ea7\u5c0f\u533a:\u4f4f\u5b85\u533a:\u4f4f\u5b85\u5c0f\u533a", "address": "\u6c99\u5934\u89d2\u660e\u73e0\u5927\u9053", "lng": 114.24926, "lat": 22.587332, "distance": 0}
{"id": "B02F37VHYD", "name": "\u4e2d\u77f3\u6cb9\u78a7\u8f9f\u52a0\u6cb9\u7ad9(\u535a\u6df1\u79d1\u6280\u5927\u53a6\u4e1c\u5357)", "type": "\u6c7d\u8f66\u670d\u52a1;\u52a0\u6cb9\u7ad9;\u4e2d\u77f3\u6cb9\u78a7\u8f9f", "address": "\u9f99\u5e73\u897f\u8def8\u53f7", "lng": 114.246284, "lat": 22.730499}
{"id": "B02F37VHRD", "name": "\u4e2d\u77f3\u6cb9\u78a7\u8f9f\u798f\u6c11\u52a0\u6cb9\u7ad9(\u77f3\u53a6\u5317\u4e09\u8857)", "type": "\u6c7d\u8f66\u670d\u52a1;\u52a0\u6cb9\u7ad9;\u4e2d\u77f3\u6cb9\u78a7\u8f9f", "address": "\u798f\u6c11\u8def192\u53f7", "lng": 114.054512, "lat": 22.52352}	{"id": "B02F37VHRD", "name": "\u4e2d\u77f3\u6cb9\u78a7\u8f9f\u798f\u6c11\u52a0\u6cb9\u7ad9(\u77f3\u53a6\u5317\u4e09\u8857)", "type": "\u6c7d\u8f66\u670d\u52a1;\u52a0\u6cb9\u7ad9;\u4e2d\u77f3\u6cb9\u78a7\u8f9f", "address": "\u798f\u6c11\u8def192\u53f7", "lng": 114.054512, "lat": 22.52352}
{"id": "B0FFF4H7QF", "name": "\u4e2d\u56fd\u77f3\u5316\u89c2\u6f9c\u52a0\u6cb9\u7ad9", "type": "\u6c7d\u8f66\u670d\u52a1;\u52a0\u6cb9\u7ad9;\u4e2d\u56fd\u77f3\u5316", "address": "\u89c2\u6f9c\u5927\u9053390\u53f7", "lng": 114.056244, "lat": 22.715874}	{"id": "12090855874746777100", "name": "\u5409\u76db\u9152\u5e971\u516c\u4ea4\u7ad9", "type": "\u57fa\u7840\u8bbe\u65bd:\u4ea4\u901a\u8bbe\u65bd:\u516c\u4ea4\u8f66\u7ad9", "address": "", "lng": 114.055405, "lat": 22.715553, "distance": 93.3}
{"id": "B02F3052DF", "name": "\u9ad8\u9014\u80fd\u6e90\u9f99\u73af\u52a0\u6cb9\u7ad9", "type": "\u6c7d\u8f66\u670d\u52a1;\u52a0\u6cb9\u7ad9;\u52a0\u6cb9\u7ad9|\u516c\u53f8\u4f01\u4e1a;\u516c\u53f8;\u516c\u53f8", "address": "\u548c\u5e73\u8def158\u53f7(\u5e73\u5b89\u94f6\u884c\u5bf9\u9762)", "lng": 114.031528, "lat": 22.658965}	{"id": "B02F3052DF", "name": "\u9ad8\u9014\u80fd\u6e90\u9f99\u73af\u52a0\u6cb9\u7ad9", "type": "\u6c7d\u8f66\u670d\u52a1;\u52a0\u6cb9\u7ad9;\u52a0\u6cb9\u7ad9|\u516c\u53f8\u4f01\u4e1a;\u516c\u53f8;\u516c\u53f8", "address": "\u548c\u5e73\u8def158\u53f7(\u5e73\u5b89\u94f6\u884c\u5bf9\u9762)", "lng": 114.031528, "lat": 22.658965}
{"id": "B0FFJD3UN7", "name": "\u4e2d\u56fd\u77f3\u5316\u52a0\u6cb9\u7ad9", "type": "\u6c7d\u8f66\u670d\u52a1;\u52a0\u6cb9\u7ad9;\u4e2d\u56fd\u77f3\u5316", "address": "\u6587\u5fc3\u4e94\u8def7\u53f7\u9644\u8fd1", "lng": 113.93589, "lat": 22.514927}	{"id": "B0FFJD3UN7", "name": "\u4e2d\u56fd\u77f3\u5316\u52a0\u6cb9\u7ad9", "type": "\u6c7d\u8f66\u670d\u52a1;\u52a0\u6cb9\u7ad9;\u4e2d\u56fd\u77f3\u5316", "address": "\u6587\u5fc3\u4e94\u8def7\u53f7\u9644\u8fd1", "lng": 113.93589, "lat": 22.514927}
{"id": "B02F37W1A0", "name": "\u6709\u8f66\u90a6(\u5de5\u4e1a\u516b\u8def\u5e97)", "type": "\u6c7d\u8f66\u670d\u52a1;\u6c7d\u8f66\u517b\u62a4/\u88c5\u9970;\u6c7d\u8f66\u517b\u62a4", "address": "\u5de5\u4e1a\u516b\u8def305-7\u53f7", "lng": 113.916422, "lat": 22.50293}
{"id": "B0FFKHH6UB", "name": "\u4e2d\u56fd\u77f3\u5316\u52a0\u6cb9\u7ad9", "type": "\u6c7d\u8f66\u670d\u52a1;\u52a0\u6cb9\u7ad9;\u4e2d\u56fd\u77f3\u5316", "address": "\u60e0\u76d0\u4e2d\u8def401\u53f7", "lng": 114.227972, "lat": 22.620077}	{"id": "B0FFKHH6UB", "name": "\u4e2d\u56fd\u77f3\u5316\u52a0\u6cb9\u7ad9", "type": "\u6c7d\u8f66\u670d\u52a1;\u52a0\u6cb9\u7ad9;\u4e2d\u56fd\u77f3\u5316", "address": "\u60e0\u76d0\u4e2d\u8def401\u53f7", "lng": 114.227972, "lat": 22.620077}
{"id": "B02F37U5P1", "name": "\u4e30\u6cfd\u6cb9\u7ad9(\u6682\u505c\u8425\u4e1a)", "type": "\u6c7d\u8f66\u670d\u52a1;\u52a0\u6cb9\u7ad9;\u52a0\u6cb9\u7ad9", "address": "\u5e7f\u6df1\u516c\u8def\u4e0e\u4e1c\u5149\u8def\u4ea4\u53e3", "lng": 113.845556, "lat": 22.631197}	{"id": "B02F37U5P1", "name": "\u4e30\u6cfd\u6cb9\u7ad9(\u6682\u505c\u8425\u4e1a)", "type": "\u6c7d\u8f66\u670d\u52a1;\u52a0\u6cb9\u7ad9;\u52a0\u6cb9\u7ad9", "address": "\u5e7f\u6df1\u516c\u8def\u4e0e\u4e1c\u5149\u8def\u4ea4\u53e3", "lng": 113.845556, "lat": 22.631197}
{"id": "B02F30AFYG", "name": "\u4e2d\u56fd\u77f3\u5316\u52a0\u6cb9\u7ad9", "type": "\u6c7d\u8f66\u670d\u52a1;\u52a0\u6cb9\u7ad9;\u4e2d\u56fd\u77f3\u5316", "address": "\u9f99\u5c97\u5927\u9053\u9f99\u5c97\u6bb53052\u53f7", "lng": 114.247736, "lat": 22.711791}	{"id": "4289629736493943729", "name": "\u5fb7\u5c3c\u65af\u9152\u5e97", "type": "\u9152\u5e97\u5bbe\u9986:\u9152\u5e97\u5bbe\u9986", "address": "\u9f99\u5c97\u5927\u90533048\u53f7", "lng": 114.247238, "lat": 22.711044, "distance": 61.9}
{"id": "B0FFGYVPAA", "name": "\u4e2d\u56fd\u77f3\u5316(\u5e03\u5409)", "type": "\u6c7d\u8f66\u670d\u52a1;\u52a0\u6cb9\u7ad9;\u4e2d\u56fd\u77f3\u5316", "address": "\u6df1\u60e0\u516c\u8def\u5e03\u5409\u7acb\u4ea4\u6865(\u51fa\u5173500\u7c73)", "lng": 114.11862, "lat": 22.581697}
{"id": "B02F38IO7A", "name": "\u4e00\u55e8\u79df\u8f66(\u6885\u6797\u5e97)", "type": "\u6c7d\u8f66\u670d\u52a1;\u6c7d\u8f66\u79df\u8d41;\u6c7d\u8f66\u79df\u8d41", "address": "\u4e0a\u6885\u6797\u51ef\u4e30\u82b1\u56ed\u8d8a\u534e\u8def37\u53f7", "lng": 114.06528, "lat": 22.567122}	{"id": "14108656652932680420", "name": "\u65af\u8fbe\u5927\u53a6", "type": "\u623f\u4ea7\u5c0f\u533a:\u5546\u52a1\u697c\u5b87", "address": "\u6885\u6797\u8def19\u53f7", "lng": 114.066238, "lat": 22.56818, "distance": 98.6}
{"id": "B02F37VJC0", "name": "\u6df1\u4e9a\u77f3\u6cb9\u671d\u9633\u8def\u52a0\u6cb9\u7ad9", "type": "\u6c7d\u8f66\u670d\u52a1;\u52a0\u6cb9\u7ad9;\u52a0\u6cb9\u7ad9", "address": "\u677e\u5c97\u5e7f\u7530\u8def\u73af\u80dc\u8def\u53e3", "lng": 113.868705, "lat": 22.804272}	{"id": "B02F37VJC0", "name": "\u6df1\u4e9a\u77f3\u6cb9\u671d\u9633\u8def\u52a0\u6cb9\u7ad9", "type": "\u6c7d\u8f66\u670d\u52a1;\u52a0\u6cb9\u7ad9;\u52a0\u6cb9\u7ad9", "address": "\u677e\u5c97\u5e7f\u7530\u8def\u73af\u80dc\u8def\u53e3", "lng": 113.868705, "lat": 22.804272}
{"id": "B0FFJJ1IFU", "name": "\u4e2d\u56fd\u77f3\u5316\u52a0\u6cb9\u7ad9", "type": "\u6c7d\u8f66\u670d\u52a1;\u52a0\u6cb9\u7ad9;\u4e2d\u56fd\u77f3\u5316", "address": "\u6c99\u6cb3\u8336\u5149\u6751\u7ad9\u53f050\u7c73", "lng": 113.955538, "lat": 22.565633}	{"id": "3029182484004703694", "name": "\u4e2d\u77f3\u5316\u6df1\u5733\u6c99\u6cb3\u897f\u52a0\u6cb9\u52a0\u6c14\u7ad9", "type": "\u6c7d\u8f66:\u52a0\u6cb9\u7ad9:\u52a0\u6cb9\u52a0\u6c14\u7ad9", "address": "\u6c99\u6cb3\u897f\u8def3019\u53f7", "lng": 113.955482, "lat": 22.565538, "distance": 0}
{"id": "B02F37UKOH", "name": "\u5a01\u56fa(\u65b0\u6c99\u8def)", "type": "\u6c7d\u8f66\u670d\u52a1;\u6c7d\u8f66\u914d\u4ef6\u9500\u552e;\u6c7d\u8f66\u914d\u4ef6\u9500\u552e", "address": "\u65b0\u6c99\u8def72-74\u53f7", "lng": 114.041916, "lat": 22.528401}	{"id": "4474421766636673934", "name": "\u6df1\u5733\u8da3\u56ed\u79c1\u4eba\u9152\u5e97\u516c\u5bd3", "type": "\u9152\u5e97\u5bbe\u9986:\u516c\u5bd3\u5f0f\u9152\u5e97", "address": "\u6ee8\u6cb3\u8def9172\u53f7", "lng": 114.040619, "lat": 22.528259, "distance": 98.8}
{"id": "B02F37T4UO", "name": "\u516c\u660e\u7ecf\u53d1\u52a0\u6cb9\u7ad9", "type": "\u6c7d\u8f66\u670d\u52a1;\u52a0\u6cb9\u7ad9;\u52a0\u6cb9\u7ad9", "address": "\u632f\u660e\u8def151\u53f7\u5b9d\u5229\u6765\u5546\u4e1a\u8857\u5bf9\u9762", "lng": 113.892056, "lat": 22.781566}	{"id": "11995989977542088716", "name": "\u6c11\u5b89\u5546\u52a1\u5bbe\u9986", "type": "\u9152\u5e97\u5bbe\u9986:\u9152\u5e97\u5bbe\u9986", "address": "\u516c\u660e\u957f\u6625\u4e2d\u8def\u53571\u5df718\u53f7(\u94b1\u7bb1KTV\u5bf9\u9762,\u8ddd\u5929\u8679\u5546\u573a200\u7c73)", "lng": 113.891541, "lat": 22.780809, "distance": 91.9}
{"id": "B02F37UBC9", "name": "\u6df1\u5357\u6c7d\u8f66\u914d\u4ef6\u4e13\u4e1a\u5e02\u573a", "type": "\u6c7d\u8f66\u670d\u52a1;\u6c7d\u8f66\u914d\u4ef6\u9500\u552e;\u6c7d\u8f66\u914d\u4ef6\u9500\u552e", "address": "\u519c\u6797\u8def41\u53f7", "lng": 114.015911, "lat": 22.541891}	{"id": "B02F37UBC9", "name": "\u6df1\u5357\u6c7d\u8f66\u914d\u4ef6\u4e13\u4e1a\u5e02\u573a", "type": "\u6c7d\u8f66\u670d\u52a1;\u6c7d\u8f66\u914d\u4ef6\u9500\u552e;\u6c7d\u8f66\u914d\u4ef6\u9500\u552e", "address": "\u519c\u6797\u8def41\u53f7", "lng": 114.015911, "lat": 22.541891}
{"id": "B0FFHE3V5L", "name": "\u4e2d\u592e\u5927\u53a8\u623f\u52a0\u6cb9\u7ad9", "type": "\u6c7d\u8f66\u670d\u52a1;\u52a0\u6cb9\u7ad9;\u52a0\u6cb9\u7ad9", "address": "\u65e0", "lng": 114.159002, "lat": 22.644961}
{"id": "B0FFLHUZG1", "name": "\u4e2d\u56fd\u77f3\u5316\u52a0\u6cb9\u7ad9", "type": "\u6c7d\u8f66\u670d\u52a1;\u52a0\u6cb9\u7ad9;\u4e2d\u56fd\u77f3\u5316", "address": "\u65e0", "lng": 113.953486, "lat": 22.578707}
{"id": "B02F37V3OH", "name": "\u94f6\u9f99\u6cb9\u7ad9", "type": "\u6c7d\u8f66\u670d\u52a1;\u52a0\u6cb9\u7ad9;\u52a0\u6cb9\u7ad9", "address": "\u5e03\u9f99\u8def6\u53f7", "lng": 114.12772, "lat": 22.613768}	{"id": "B02F37V3OH", "name": "\u94f6\u9f99\u6cb9\u7ad9", "type": "\u6c7d\u8f66\u670d\u52a1;\u52a0\u6cb9\u7ad9;\u52a0\u6cb9\u7ad9", "address": "\u5e03\u9f99\u8def6\u53f7", "lng": 114.12772, "lat": 22.613768}
{"id": "B02F30A3PH", "name": "\u9f99\u817e\u6c7d\u914d(\u516b\u5366\u4e03\u8857)", "type": "\u6c7d\u8f66\u670d\u52a1;\u6c7d\u8f66\u914d\u4ef6\u9500\u552e;\u6c7d\u8f66\u914d\u4ef6\u9500\u552e", "address": "\u516b\u5366\u4e03\u8857\u53574\u680bA2", "lng": 114.101105, "lat": 22.558267}
{"id": "B02F37TGIZ", "name": "\u8f7f\u4e4b\u6797(\u798f\u7530\u666f\u7530\u5e97)", "type": "\u6c7d\u8f66\u670d\u52a1;\u6c7d\u8f66\u670d\u52a1\u76f8\u5173;\u6c7d\u8f66\u670d\u52a1\u76f8\u5173", "address": "\u9999\u6885\u8def\u5929\u660e\u5c451\u680b1\u697c2008\u53f7", "lng": 114.03496, "lat": 22.553971}	{"id": "8069460664161811359", "name": "\u503e\u57ce\u5b9d\u8d1d\u513f\u7ae5\u6444\u5f71(\u9999\u871c\u6e56\u5e97)", "type": "\u751f\u6d3b\u670d\u52a1:\u6444\u5f71\u51b2\u5370", "address": "\u9999\u6885\u5317\u8def2008\u53f7\u5929\u660e\u5c45B\u680b2702", "lng": 114.035248, "lat": 22.55397, "distance": 29.8}
{"id": "B0FFFVRCUP", "name": "\u5b8f\u9526\u77f3\u6cb9\u52a0\u6cb9\u7ad9(\u5927\u738b\u6d32\u7ad9)", "type": "\u6c7d\u8f66\u670d\u52a1;\u52a0\u6cb9\u7ad9;\u4e2d\u77f3\u6cb9\u78a7\u8f9f", "address": "\u5174\u4e1a\u8def2001\u53f7", "lng": 113.868478, "lat": 22.559292}
{"id": "B0FFGFATB7", "name": "\u4e2d\u56fd\u77f3\u5316\u52a0\u5fb7\u52b2\u6cb9\u7ad9", "type": "\u6c7d\u8f66\u670d\u52a1;\u52a0\u6cb9\u7ad9;\u4e2d\u56fd\u77f3\u5316", "address": "\u524d\u8fdb\u4e8c\u8def141\u53f7", "lng": 113.865745, "lat": 22.606672}
{"id": "B02F37VPNO", "name": "\u65b0\u5c4b\u6751\u5e02\u573a", "type": "\u8d2d\u7269\u670d\u52a1;\u7efc\u5408\u5e02\u573a;\u519c\u526f\u4ea7\u54c1\u5e02\u573a|\u6c7d\u8f66\u670d\u52a1;\u4e8c\u624b\u8f66\u4ea4\u6613;\u4e8c\u624b\u8f66\u4ea4\u6613", "address": "\u9f99\u73e0\u5927\u9053102\u53f7", "lng": 113.966991, "lat": 22.568331}	{"id": "7073021132534325280", "name": "\u65b0\u5c4b\u6751", "type": "\u623f\u4ea7\u5c0f\u533a:\u4f4f\u5b85\u533a:\u4f4f\u5b85\u5c0f\u533a", "address": "\u897f\u4e3d\u9547\u9f99\u73e0\u5927\u9053\u65b0\u5c4b\u6751", "lng": 113.967079, "lat": 22.569401, "distance": 0}
{"id": "B02F37VE3T", "name": "\u5efa\u5927\u8f6e\u80ce(\u5bcc\u5174\u6c7d\u914d\u5e97)", "type": "\u6c7d\u8f66\u670d\u52a1;\u6c7d\u8f66\u914d\u4ef6\u9500\u552e;\u6c7d\u8f66\u914d\u4ef6\u9500\u552e", "address": "\u7f57\u82b3\u8def2022\u53f7\u9644\u8fd1", "lng": 114.148574, "lat": 22.551077}	{"id": "1827611641432928501", "name": "\u8ca1\u767c\u6f6e\u6c55\u725b\u5473\u9986", "type": "\u7f8e\u98df:\u4e2d\u9910\u5385:\u7ca4\u83dc", "address": "\u7f57\u82b3\u8def190-1", "lng": 114.148926, "lat": 22.551624, "distance": 70.8}
{"id": "B0FFF2VWU3", "name": "\u4e2d\u56fd\u77f3\u5316\u52a0\u6cb9\u7ad9", "type": "\u6c7d\u8f66\u670d\u52a1;\u52a0\u6cb9\u7ad9;\u4e2d\u56fd\u77f3\u5316", "address": "\u6c99\u6cb3\u897f\u8def4046\u53f7", "lng": 113.955169, "lat": 22.583086}	{"id": "B0FFF2VWU3", "name": "\u4e2d\u56fd\u77f3\u5316\u52a0\u6cb9\u7ad9", "type": "\u6c7d\u8f66\u670d\u52a1;\u52a0\u6cb9\u7ad9;\u4e2d\u56fd\u77f3\u5316", "address": "\u6c99\u6cb3\u897f\u8def4046\u53f7", "lng": 113.955169, "lat": 22.583086}
{"id": "B0FFGPC5BI", "name": "\u4e2d\u56fd\u77f3\u6cb9\u52a0\u6cb9\u52a0\u6c14\u7ad9(\u8d64\u6e7e\u4e5d\u8def)", "type": "\u6c7d\u8f66\u670d\u52a1;\u5176\u5b83\u80fd\u6e90\u7ad9;\u5176\u5b83\u80fd\u6e90\u7ad9", "address": "\u8d64\u6e7e\u4e8c\u8def\u548c\u8d64\u6e7e\u4e5d\u8def\u4ea4\u53c9\u53e3\u4e1c", "lng": 113.885965, "lat": 22.47806}	{"id": "B0FFGPC5BI", "name": "\u4e2d\u56fd\u77f3\u6cb9\u52a0\u6cb9\u52a0\u6c14\u7ad9(\u8d64\u6e7e\u4e5d\u8def)", "type": "\u6c7d\u8f66\u670d\u52a1;\u5176\u5b83\u80fd\u6e90\u7ad9;\u5176\u5b83\u80fd\u6e90\u7ad9", "address": "\u8d64\u6e7e\u4e8c\u8def\u548c\u8d64\u6e7e\u4e5d\u8def\u4ea4\u53c9\u53e3\u4e1c", "lng": 113.885965, "lat": 22.47806}
{"id": "B02F38PFI4", "name": "\u5609\u5b9e\u591a\u7f8e\u4ebf", "type": "\u6c7d\u8f66\u670d\u52a1;\u6c7d\u8f66\u517b\u62a4/\u88c5\u9970;\u6c7d\u8f66\u517b\u62a4", "address": "\u516b\u5366\u5cad\u5de5\u4e1a\u533a536\u680b\u516b\u5366\u4e8c\u8def\u516b\u5366\u516d\u8857\u4ea4\u63a5\u53e3", "lng": 114.09706, "lat": 22.559379}	{"id": "12295245485274322175", "name": "\u52b3\u52a8\u5c31\u4e1a\u5927\u53a6", "type": "\u623f\u4ea7\u5c0f\u533a:\u5546\u52a1\u697c\u5b87", "address": "\u516b\u5366\u4e8c\u8def113\u53f7", "lng": 114.097794, "lat": 22.55858, "distance": 81.2}
{"id": "B02F37W3IZ", "name": "\u4e2d\u56fd\u77f3\u5316\u6ee8\u6d77\u52a0\u6cb9\u7ad9", "type": "\u6c7d\u8f66\u670d\u52a1;\u52a0\u6cb9\u7ad9;\u4e2d\u56fd\u77f3\u5316", "address": "\u6ee8\u6d77\u5927\u90532002\u53f7", "lng": 113.993457, "lat": 22.522414}	{"id": "B02F37W3IZ", "name": "\u4e2d\u56fd\u77f3\u5316\u6ee8\u6d77\u52a0\u6cb9\u7ad9", "type": "\u6c7d\u8f66\u670d\u52a1;\u52a0\u6cb9\u7ad9;\u4e2d\u56fd\u77f3\u5316", "address": "\u6ee8\u6d77\u5927\u90532002\u53f7", "lng": 113.993457, "lat": 22.522414}
{"id": "B02F38IHUH", "name": "\u4e2d\u56fd\u77f3\u5316\u4e2d\u6df1\u76ca\u6210\u52a0\u6cb9\u7ad9", "type": "\u6c7d\u8f66\u670d\u52a1;\u52a0\u6cb9\u7ad9;\u4e2d\u56fd\u77f3\u5316", "address": "\u5e73\u6e56\u9547\u4e1c\u6df1\u516c\u8def228\u53f7", "lng": 114.163, "lat": 22.680578}
{"id": "B02F37T4WT", "name": "\u4e2d\u56fd\u77f3\u5316\u5c97\u6e90\u52a0\u6cb9\u7ad9", "type": "\u6c7d\u8f66\u670d\u52a1;\u52a0\u6cb9\u7ad9;\u4e2d\u56fd\u77f3\u5316", "address": "\u9ec4\u9601\u8def151\u53f7(\u9ec4\u9601\u5357\u8def)", "lng": 114.22325, "lat": 22.692484}	{"id": "B02F37T4WT", "name": "\u4e2d\u56fd\u77f3\u5316\u5c97\u6e90\u52a0\u6cb9\u7ad9", "type": "\u6c7d\u8f66\u670d\u52a1;\u52a0\u6cb9\u7ad9;\u4e2d\u56fd\u77f3\u5316", "address": "\u9ec4\u9601\u8def151\u53f7(\u9ec4\u9601\u5357\u8def)", "lng": 114.22325, "lat": 22.692484}
{"id": "B02F37TR1G", "name": "\u5fb7\u80dc\u6c7d\u914d(\u4fa8\u9999\u8def)", "type": "\u6c7d\u8f66\u670d\u52a1;\u6c7d\u8f66\u914d\u4ef6\u9500\u552e;\u6c7d\u8f66\u914d\u4ef6\u9500\u552e", "address": "\u4fa8\u9999\u8def4034\u53f7\u9644\u8fd1", "lng": 113.990287, "lat": 22.543994}
{"id": "B0FFFABDY4", "name": "\u4e2d\u56fd\u77f3\u5316\u666f\u987a\u52a0\u6cb9\u7ad9", "type": "\u6c7d\u8f66\u670d\u52a1;\u52a0\u6cb9\u7ad9;\u4e2d\u56fd\u77f3\u5316", "address": "\u5357\u6d66\u8def", "lng": 113.834466, "lat": 22.706142}	{"id": "B0FFFABDY4", "name": "\u4e2d\u56fd\u77f3\u5316\u666f\u987a\u52a0\u6cb9\u7ad9", "type": "\u6c7d\u8f66\u670d\u52a1;\u52a0\u6cb9\u7ad9;\u4e2d\u56fd\u77f3\u5316", "address": "\u5357\u6d66\u8def", "lng": 113.834466, "lat": 22.706142}
{"id": "B02F37VDHU", "name": "\u4e2d\u56fd\u77f3\u5316\u6e56\u817e\u8fbe\u52a0\u6cb9\u7ad9", "type": "\u6c7d\u8f66\u670d\u52a1;\u52a0\u6cb9\u7ad9;\u4e2d\u56fd\u77f3\u5316", "address": "\u6cbf\u6cb3\u5317\u8def2010\u53f7", "lng": 114.14633, "lat": 22.55802}
{"id": "B02F37T4XU", "name": "\u4e2d\u56fd\u77f3\u5316(\u5e03\u9f99\u52a0\u6cb9\u7ad9)", "type": "\u6c7d\u8f66\u670d\u52a1;\u52a0\u6cb9\u7ad9;\u4e2d\u56fd\u77f3\u5316", "address": "\u91d1\u8fd0\u8def166\u53f7", "lng": 114.120909, "lat": 22.618008}	{"id": "B02F37T4XU", "name": "\u4e2d\u56fd\u77f3\u5316(\u5e03\u9f99\u52a0\u6cb9\u7ad9)", "type": "\u6c7d\u8f66\u670d\u52a1;\u52a0\u6cb9\u7ad9;\u4e2d\u56fd\u77f3\u5316", "address": "\u91d1\u8fd0\u8def166\u53f7", "lng": 114.120909, "lat": 22.618008}
{"id": "B0FFFRHHP7", "name": "\u9e3f\u6069\u76db\u4e8c\u624b\u8f66\u5e02\u573a", "type": "\u6c7d\u8f66\u670d\u52a1;\u4e8c\u624b\u8f66\u4ea4\u6613;\u4e8c\u624b\u8f66\u4ea4\u6613|\u6c7d\u8f66\u9500\u552e;\u6c7d\u8f66\u9500\u552e;\u6c7d\u8f66\u9500\u552e", "address": "\u7acb\u4fe1\u8def71\u9644\u8fd1", "lng": 114.150656, "lat": 22.624281}
{"id": "B02F37T4YF", "name": "\u4e2d\u56fd\u77f3\u5316\u52a0\u6cb9\u7ad9(\u9e4f\u98de\u8def)", "type": "\u6c7d\u8f66\u670d\u52a1;\u52a0\u6cb9\u7ad9;\u4e2d\u56fd\u77f3\u5316", "address": "\u9e4f\u98de\u8def414\u53f7\u9644\u8fd1", "lng": 114.529007, "lat": 22.593385}
{"id": "B0FFF3WSYP", "name": "\u4e00\u55e8\u79df\u8f66(\u5e03\u5409\u706b\u8f66\u4e1c\u7ad9\u5e97)", "type": "\u6c7d\u8f66\u670d\u52a1;\u6c7d\u8f66\u79df\u8d41;\u6c7d\u8f66\u79df\u8d41", "address": "\u9f99\u5c97\u5927\u9053\u6df1\u5733\u4e1c\u7ad9\u6d3e\u51fa\u6240\u65c1\u6df1\u5733\u4e1c\u7ad9\u5730\u533a\u505c\u8f66\u573a\u5185", "lng": 114.119932, "lat": 22.600097}
{"id": "B0FFHLWFXF", "name": "\u9014\u864e\u517b\u8f66\u5de5\u573a\u5e97(\u6df1\u5733\u7ea2\u68c9\u4e8c\u8def\u5e97)", "type": "\u6c7d\u8f66\u670d\u52a1;\u6c7d\u8f66\u517b\u62a4/\u88c5\u9970;\u6c7d\u8f66\u517b\u62a4", "address": "\u7ea2\u68c9\u4e8c\u8def1\u53f7", "lng": 114.198024, "lat": 22.648916}
{"id": "B02F38J4L1", "name": "\u4e2d\u56fd\u822a\u6cb9\u52a0\u6cb9\u7ad9", "type": "\u6c7d\u8f66\u670d\u52a1;\u52a0\u6cb9\u7ad9;\u52a0\u6cb9\u7ad9", "address": "\u822a\u7ad9\u56db\u8def2034\u53f7(\u673a\u573a\u56db\u8def)", "lng": 113.826361, "lat": 22.638714}	{"id": "12412891433035900684", "name": "\u673a\u573a\u52a0\u6cb9\u4e00\u7ad9", "type": "\u6c7d\u8f66:\u52a0\u6cb9\u7ad9:\u5176\u5b83\u52a0\u6cb9\u7ad9", "address": "\u822a\u7ad9\u56db\u8def2034\u53f7(\u673a\u573a\u56db\u8def)", "lng": 113.826332, "lat": 22.639137, "distance": 0}
{"id": "B02F37T4UZ", "name": "\u4e2d\u56fd\u77f3\u5316\u5b9d\u77f3\u52a0\u6cb9\u7ad9", "type": "\u6c7d\u8f66\u670d\u52a1;\u52a0\u6cb9\u7ad9;\u4e2d\u56fd\u77f3\u5316", "address": "\u77f3\u5ca9\u9547\u5b9d\u77f3\u4e1c\u8def74\u53f7", "lng": 113.965551, "lat": 22.683665}	{"id": "B02F37T4UZ", "name": "\u4e2d\u56fd\u77f3\u5316\u5b9d\u77f3\u52a0\u6cb9\u7ad9", "type": "\u6c7d\u8f66\u670d\u52a1;\u52a0\u6cb9\u7ad9;\u4e2d\u56fd\u77f3\u5316", "address": "\u77f3\u5ca9\u9547\u5b9d\u77f3\u4e1c\u8def74\u53f7", "lng": 113.965551, "lat": 22.683665}
{"id": "B02F37VHWI", "name": "\u4e2d\u77f3\u6cb9\u78a7\u8f9f\u677e\u5cad\u52a0\u6cb9\u7ad9", "type": "\u6c7d\u8f66\u670d\u52a1;\u52a0\u6cb9\u7ad9;\u4e2d\u77f3\u6cb9\u78a7\u8f9f", "address": "\u576a\u5c71\u65b0\u533a\u91d1\u78a7\u8def313\u53f7(\u6a2a\u576a\u516c\u8def)", "lng": 114.307782, "lat": 22.676032}	{"id": "B02F37VHWI", "name": "\u4e2d\u77f3\u6cb9\u78a7\u8f9f\u677e\u5cad\u52a0\u6cb9\u7ad9", "type": "\u6c7d\u8f66\u670d\u52a1;\u52a0\u6cb9\u7ad9;\u4e2d\u77f3\u6cb9\u78a7\u8f9f", "address": "\u576a\u5c71\u65b0\u533a\u91d1\u78a7\u8def313\u53f7(\u6a2a\u576a\u516c\u8def)", "lng": 114.307782, "lat": 22.676032}
{"id": "B0FFG8UDRQ", "name": "\u4e2d\u56fd\u6d77\u6cb9\u52a0\u6cb9\u7ad9", "type": "\u6c7d\u8f66\u670d\u52a1;\u52a0\u6cb9\u7ad9;\u52a0\u6cb9\u7ad9", "address": "\u5c0f\u5357\u5c71\u516c\u56ed\u897f\u5317400\u7c73(\u6708\u4eae\u6e7e\u5927\u9053\u5357)\u5988\u6e7e\u6e2f\u9644\u8fd1,\u5c0f\u5357\u5c71\u516c\u56ed\u9644\u8fd1", "lng": 113.878493, "lat": 22.493142}
{"id": "B02F38SR2A", "name": "\u4e2d\u56fd\u77f3\u5316\u65b0\u5609\u6fe0\u52a0\u6cb9\u7ad9", "type": "\u6c7d\u8f66\u670d\u52a1;\u52a0\u6cb9\u7ad9;\u4e2d\u56fd\u77f3\u5316", "address": "\u897f\u4e61\u5927\u9053\u4e0e\u524d\u8fdb\u8def\u4ea4\u6c47\u5904\u897f\u4e61\u5927\u9053225\u53f7", "lng": 113.883387, "lat": 22.588773}
{"id": "B02F38JHXJ", "name": "\u4e2d\u56fd\u77f3\u6cb9CNG\u52a0\u6c14\u7ad9(\u822a\u7ad9\u4e00\u8def)", "type": "\u6c7d\u8f66\u670d\u52a1;\u52a0\u6c14\u7ad9;\u52a0\u6c14\u7ad9", "address": "\u5b9d\u5b89\u56fd\u9645\u673a\u573a\u4fe1\u606f\u5927\u697c\u65c1", "lng": 113.829088, "lat": 22.645079}	{"id": "5712821329389603156", "name": "\u7a7a\u6e2f\u6cb9\u6599\u52a0\u6c14\u7ad9", "type": "\u6c7d\u8f66:\u52a0\u6cb9\u7ad9:\u52a0\u6c14\u7ad9", "address": "\u673a\u573a\u90531009\u53f7\u9644\u8fd1", "lng": 113.82901, "lat": 22.6451, "distance": 8.2}
{"id": "B02F38K80J", "name": "\u4e2d\u56fd\u77f3\u5316\u52a0\u6cb9\u7ad9(\u534e\u521b\u8fbe\u5546\u52a1\u697c\u4e1c\u5317)", "type": "\u6c7d\u8f66\u670d\u52a1;\u52a0\u6cb9\u7ad9;\u4e2d\u56fd\u77f3\u5316", "address": "\u5e7f\u6df1\u8def\u65b0\u5b89\u6bb5341\u53f7", "lng": 113.894545, "lat": 22.566315}
{"id": "B02F37VKLA", "name": "\u4e2d\u56fd\u77f3\u6cb9\u4e2d\u65b0\u52a0\u6cb9\u7ad9", "type": "\u6c7d\u8f66\u670d\u52a1;\u52a0\u6cb9\u7ad9;\u4e2d\u56fd\u77f3\u6cb9", "address": "\u5b9d\u8377\u5927\u9053138\u53f7", "lng": 114.271765, "lat": 22.688708}	{"id": "B02F37VKLA", "name": "\u4e2d\u56fd\u77f3\u6cb9\u4e2d\u65b0\u52a0\u6cb9\u7ad9", "type": "\u6c7d\u8f66\u670d\u52a1;\u52a0\u6cb9\u7ad9;\u4e2d\u56fd\u77f3\u6cb9", "address": "\u5b9d\u8377\u5927\u9053138\u53f7", "lng": 114.271765, "lat": 22.688708}
{"id": "B02F37VAB1", "name": "\u4e2d\u56fd\u77f3\u5316\u65b0\u4e30\u6cb9\u7ad9(\u5e7f\u6df1\u516c\u8def\u8f85\u8def)", "type": "\u6c7d\u8f66\u670d\u52a1;\u52a0\u6cb9\u7ad9;\u4e2d\u56fd\u77f3\u5316", "address": "\u5e7f\u6df1\u8def\u6c99\u4e95\u6bb5509\u53f7", "lng": 113.84633, "lat": 22.741215}	{"id": "B02F37VAB1", "name": "\u4e2d\u56fd\u77f3\u5316\u65b0\u4e30\u6cb9\u7ad9(\u5e7f\u6df1\u516c\u8def\u8f85\u8def)", "type": "\u6c7d\u8f66\u670d\u52a1;\u52a0\u6cb9\u7ad9;\u4e2d\u56fd\u77f3\u5316", "address": "\u5e7f\u6df1\u8def\u6c99\u4e95\u6bb5509\u53f7", "lng": 113.84633, "lat": 22.741215}
{"id": "B02F37VNCD", "name": "\u4e2d\u56fd\u77f3\u5316\u4e2d\u6df1\u52a0\u6cb9\u7ad9", "type": "\u6c7d\u8f66\u670d\u52a1;\u52a0\u6cb9\u7ad9;\u4e2d\u56fd\u77f3\u5316", "address": "\u4e1c\u6d77\u90531\u53f7", "lng": 114.26864, "lat": 22.584576}	{"id": "B02F37VNCD", "name": "\u4e2d\u56fd\u77f3\u5316\u4e2d\u6df1\u52a0\u6cb9\u7ad9", "type": "\u6c7d\u8f66\u670d\u52a1;\u52a0\u6cb9\u7ad9;\u4e2d\u56fd\u77f3\u5316", "address": "\u4e1c\u6d77\u90531\u53f7", "lng": 114.26864, "lat": 22.584576}
{"id": "B02F30A9SL", "name": "\u4e2d\u56fd\u77f3\u5316\u7279\u53d1\u52a0\u6cb9\u7ad9", "type": "\u6c7d\u8f66\u670d\u52a1;\u52a0\u6cb9\u7ad9;\u4e2d\u56fd\u77f3\u5316", "address": "\u6df1\u5357\u5927\u905311005\u53f7", "lng": 113.936081, "lat": 22.538966}
{"id": "B02F38MEDJ", "name": "\u4e2d\u56fd\u77f3\u5316\u7231\u56fd\u52a0\u6cb9\u7ad9(\u5e03\u5fc3\u8def\u8f85\u8def)", "type": "\u6c7d\u8f66\u670d\u52a1;\u52a0\u6cb9\u7ad9;\u4e2d\u56fd\u77f3\u5316", "address": "\u5e03\u5fc3\u8def1008\u53f7", "lng": 114.142946, "lat": 22.573229}	{"id": "B02F38MEDJ", "name": "\u4e2d\u56fd\u77f3\u5316\u7231\u56fd\u52a0\u6cb9\u7ad9(\u5e03\u5fc3\u8def\u8f85\u8def)", "type": "\u6c7d\u8f66\u670d\u52a1;\u52a0\u6cb9\u7ad9;\u4e2d\u56fd\u77f3\u5316", "address": "\u5e03\u5fc3\u8def1008\u53f7", "lng": 114.142946, "lat": 22.573229}
{"id": "B02F38J5AG", "name": "\u8f66\u5929\u5730\u6c7d\u8f66\u9500\u552e\u670d\u52a1\u6709\u9650\u516c\u53f8", "type": "\u6c7d\u8f66\u9500\u552e;\u6c7d\u8f66\u9500\u552e;\u6c7d\u8f66\u9500\u552e|\u6c7d\u8f66\u670d\u52a1;\u6c7d\u8f66\u670d\u52a1\u76f8\u5173;\u6c7d\u8f66\u670d\u52a1\u76f8\u5173", "address": "\u576a\u5c71\u65b0\u533a\u4e1c\u7eb5\u8def87\u53f7", "lng": 114.366558, "lat": 22.686025}
{"id": "B0FFHLLSQ0", "name": "\u9014\u864e\u517b\u8f66\u5de5\u573a\u5e97(\u6df1\u5733\u9f99\u5e73\u4e1c\u8def\u5e97)", "type": "\u6c7d\u8f66\u670d\u52a1;\u6c7d\u8f66\u517b\u62a4/\u88c5\u9970;\u6c7d\u8f66\u517b\u62a4", "address": "\u9f99\u5e73\u4e1c\u8def283-285\u53f7", "lng": 114.264166, "lat": 22.731592}	{"id": "1354382512706823890", "name": "\u5609\u5dde\u516c\u5bd3", "type": "\u623f\u4ea7\u5c0f\u533a:\u4f4f\u5b85\u533a:\u4f4f\u5b85\u5c0f\u533a", "address": "\u9f99\u5e73\u4e1c\u8def267\u53f7", "lng": 114.264473, "lat": 22.731441, "distance": 35.5}
{"id": "B02F37T4UG", "name": "\u4e2d\u56fd\u77f3\u5316\u5a01\u987a\u52a0\u6cb9\u7ad9", "type": "\u6c7d\u8f66\u670d\u52a1;\u52a0\u6cb9\u7ad9;\u4e2d\u56fd\u77f3\u5316", "address": "\u677e\u767d\u8def7029\u53f7", "lng": 113.856182, "lat": 22.771435}	{"id": "B02F37T4UG", "name": "\u4e2d\u56fd\u77f3\u5316\u5a01\u987a\u52a0\u6cb9\u7ad9", "type": "\u6c7d\u8f66\u670d\u52a1;\u52a0\u6cb9\u7ad9;\u4e2d\u56fd\u77f3\u5316", "address": "\u677e\u767d\u8def7029\u53f7", "lng": 113.856182, "lat": 22.771435}
{"id": "B0FFHW46HS", "name": "\u4e2d\u56fd\u77f3\u5316\u4e39\u6392\u52a0\u6cb9\u7ad9", "type": "\u6c7d\u8f66\u670d\u52a1;\u52a0\u6cb9\u7ad9;\u4e2d\u56fd\u77f3\u5316", "address": "\u65e0", "lng": 114.156237, "lat": 22.635942}	{"id": "B0FFHW46HS", "name": "\u4e2d\u56fd\u77f3\u5316\u4e39\u6392\u52a0\u6cb9\u7ad9", "type": "\u6c7d\u8f66\u670d\u52a1;\u52a0\u6cb9\u7ad9;\u4e2d\u56fd\u77f3\u5316", "address": "\u65e0", "lng": 114.156237, "lat": 22.635942}
{"id": "B02F301B97", "name": "\u4e2d\u56fd\u77f3\u5316\u52a0\u6cb9\u7ad9(\u5e73\u6e56\u5927\u8857)", "type": "\u6c7d\u8f66\u670d\u52a1;\u52a0\u6cb9\u7ad9;\u4e2d\u56fd\u77f3\u5316", "address": "\u5e73\u6e56\u5927\u8857159\u53f7", "lng": 114.149179, "lat": 22.679202}	{"id": "B02F301B97", "name": "\u4e2d\u56fd\u77f3\u5316\u52a0\u6cb9\u7ad9(\u5e73\u6e56\u5927\u8857)", "type": "\u6c7d\u8f66\u670d\u52a1;\u52a0\u6cb9\u7ad9;\u4e2d\u56fd\u77f3\u5316", "address": "\u5e73\u6e56\u5927\u8857159\u53f7", "lng": 114.149179, "lat": 22.679202}
